FID,siteId,uwwCode,repCode,uwwName,uwwState,uwwE-PRTRCode,uwwCollectingSystem,uwwNUTS,uwwLoadEnteringUWWTP,uwwCapacity,uwwPrimaryTreatment,uwwSecondaryTreatment,uwwNRemoval,uwwPRemoval,uwwUV,uwwChlorination,uwwOzonation,uwwSandFiltration,uwwMicroFiltration,uwwSpecification,uwwBOD5Perf,uwwCODPerf,uwwTSSPerf,uwwNTotPerf,uwwPTotPerf,uwwOtherPerf,uwwBadPerfDesign,uwwLatitude,uwwLongitude,the_geom,uwwBODIncomingMeasured,uwwCODIncomingMeasured,uwwNIncomingMeasured,uwwPIncomingMeasured,uwwBODDischargeMeasured,uwwCODDischargeMeasured,uwwNDischargeMeasured,uwwPDischargeMeasured,uwwWasteWaterTreated,uwwMethodWasteWaterTreated,uwwRemarks,uwwDateClosing,uwwAccidents,uwwBadPerformance,uwwBODDischargeCalculated,uwwBODDischargeEstimated,uwwBODIncomingCalculated,uwwBODIncomingEstimated,uwwCODDischargeCalculated,uwwCODDischargeEstimated,uwwCODIncomingCalculated,uwwCODIncomingEstimated,uwwHistorie,uwwInformation,uwwNDischargeCalculated,uwwNDischargeEstimated,uwwNIncomingCalculated,uwwNIncomingEstimated,uwwPDischargeCalculated,uwwPDischargeEstimated,uwwPIncomingCalculated,uwwPIncomingEstimated,uwwOther,uwwTreatmentType,uwwTreatmentTypeRequired,uwwTreatmentMet,uwwPerformanceMet,uwwCompliance,repReportedPerdiod,uwwBeginLife,uwwEndLife
UWWTD_United-Kingdom_UrbanWasteWaterTreatmentPlant.fid--515f29cd_17eb926cae9_-2088,2018_uww_UKENNW_UU_TP000097,UKENNW_UU_TP000097,UK,NORTHWICH STW,1,,ISCON,UKD63,59344,60165,1,1,0,0,0,0,0,0,0,,P,P,NR,NR,NR,,,53.26319813,-2.54507613,POINT (-2.545076127 53.263198166044724),,,,,,,,,,,,,,,,,,,,,,,,,,,,,,,,,,Secondary,More Stringent: Phosphorus,0,0,NC,2018,2014-01-01T00:00:00,
UWWTD_United-Kingdom_UrbanWasteWaterTreatmentPlant.fid--515f29cd_17eb926cae9_-2087,2018_uww_UKENSW_WXW_TP000093,UKENSW_WXW_TP000093,UK,WAREHAM STW,1,,ISCON,UKK22,16853,18517,1,1,0,0,1,0,0,0,0,,P,P,NR,NR,NR,,,50.69881554,-2.09213561,POINT (-2.0921356119999994 50.69881557856133),,,,,,,,,,,,,,,,,,,,,,,,,,,,,,,,,,More Stringent: Other,More Stringent: Nitrogen and Other,0,0,NC,2018,2014-01-01T00:00:00,
UWWTD_United-Kingdom_UrbanWasteWaterTreatmentPlant.fid--515f29cd_17eb926cae9_-2086,2018_uww_UKWAWA_WW_TP000029,UKWAWA_WW_TP000029,UK,COLEFORD   STW,1,,ISCON,UKK13,20601,31136,1,1,0,1,0,0,0,0,0,,P,P,NR,NR,NR,,,51.77826141,-2.65183396,POINT (-2.65183396 51.77826144760011),,,,,,,,,,,Trade Effluent PE reduction of 5.5k,,,,,,,,,,,,,,,,,,,,,,,More Stringent: Other,More Stringent: Phosphorus,1,0,NC,2018,2014-01-01T00:00:00,
UWWTD_United-Kingdom_UrbanWasteWaterTreatmentPlant.fid--515f29cd_17eb926cae9_-2085,2018_uww_UKENMI_ST_TP000010,UKENMI_ST_TP000010,UK,ASLOCKTON STW,1,,ISCON,UKF16,12373,16000,1,1,0,1,0,0,0,1,0,Chemical Dosing (iron),P,P,NR,NR,P,,,52.95768604,-0.9193929,POINT (-0.919392904 52.957686076385656),,,,,,,,,,,,,,,,,,,,,,,,,,,,,,,,,,More Stringent: Other,More Stringent: Phosphorus,1,1,C,2018,2014-01-01T00:00:00,
UWWTD_United-Kingdom_UrbanWasteWaterTreatmentPlant.fid--515f29cd_17eb926cae9_-2084,2018_uww_UKENMI_ST_TP000041,UKENMI_ST_TP000041,UK,BROCKHAMPTON STW,1,,ISCON,UKK13,16494,17000,1,1,0,1,0,0,0,0,1,Chemical dosing (iron) plus tertiary solids removal (cloth filter),P,P,NR,NR,P,,,51.93186355,-2.07966766,POINT (-2.07966766 51.931863587451396),,,,,,,,,,,,,,,,,,,,,,,,,,,,,,,,,,More Stringent: Other,More Stringent: Phosphorus,1,1,C,2018,2014-01-01T00:00:00,
UWWTD_United-Kingdom_UrbanWasteWaterTreatmentPlant.fid--515f29cd_17eb926cae9_-2083,2018_uww_UKENMI_ST_TP000061,UKENMI_ST_TP000061,UK,CODSALL STW,1,,ISCON,UKG24,13253,17000,1,1,0,1,0,0,0,1,0,Chemical Dosing (iron) plus Tertiary Solids Removal (Sand Filter),P,P,NR,NR,P,,,52.63129553,-2.17342754,POINT (-2.173427539 52.63129556673815),,,,,,,,,,,,,,,,,,,,,,,,,,,,,,,,,,More Stringent: Other,More Stringent: Phosphorus,1,1,C,2018,2014-01-01T00:00:00,
UWWTD_United-Kingdom_UrbanWasteWaterTreatmentPlant.fid--515f29cd_17eb926cae9_-2082,2018_uww_UKENMI_ST_TP000169,UKENMI_ST_TP000169,UK,PENKRIDGE STW,1,,ISCON,UKG24,13846,16000,1,1,0,1,0,0,0,0,0,Chemical Dosing (iron),P,P,NR,NR,P,,,52.74474473,-2.09403536,POINT (-2.094035363 52.74474476661701),,,,,,,,,,,,,,,,,,,,,,,,,,,,,,,,,,More Stringent: Other,More Stringent: Phosphorus,1,1,C,2018,2014-01-01T00:00:00,
UWWTD_United-Kingdom_UrbanWasteWaterTreatmentPlant.fid--515f29cd_17eb926cae9_-2081,2018_uww_UKENSO_SW_TP000084,UKENSO_SW_TP000084,UK,SCAYNES HILL STW,1,,ISCON,UKJ28,42127,42127,1,1,0,0,0,0,0,0,0,,P,P,NR,NR,NR,,,51.00159007,-0.03598686,POINT (-0.035986862 51.001590108306836),,,,,,,,,,,,,,,,,,,,,,,,,,,,,,,,,,Secondary,More Stringent: Phosphorus,0,0,NC,2018,2014-01-01T00:00:00,
UWWTD_United-Kingdom_UrbanWasteWaterTreatmentPlant.fid--515f29cd_17eb926cae9_-2080,2018_uww_UKENSO_SW_TP000081,UKENSO_SW_TP000081,UK,BURGESS HILL   STW,1,,ISCON,UKJ28,62828,62828,1,1,0,0,0,0,0,0,0,,P,P,NR,NR,NR,,,50.97014712,-0.16696968,POINT (-0.166969683 50.97014715833382),,,,,,,,,,,Increase in Cess Imports to works,,,,,,,,,,,,,,,,,,,,,,,Secondary,More Stringent: Phosphorus,0,0,NC,2018,2014-01-01T00:00:00,
UWWTD_United-Kingdom_UrbanWasteWaterTreatmentPlant.fid--515f29cd_17eb926cae9_-207f,2018_uww_UKENNW_UU_TP000004,UKENNW_UU_TP000004,UK,ALTRINCHAM STW,1,,ISCON,UKD34,44401,44401,1,1,0,1,0,0,0,0,0,,P,P,NR,NR,P,,,53.41018471,-2.37696313,POINT (-2.3769631250000005 53.41018474587702),,,,,,,,,,,,,,,,,,,,,,,,,,,,,,,,,,More Stringent: Other,More Stringent: Phosphorus,1,1,C,2018,2014-01-01T00:00:00,
UWWTD_United-Kingdom_UrbanWasteWaterTreatmentPlant.fid--515f29cd_17eb926cae9_-207e,2018_uww_UKENNW_UU_TP000038,UKENNW_UU_TP000038,UK,CREWE STW,1,,ISCON,UKD62,103938,103938,1,1,0,0,0,0,0,0,0,,P,P,NR,NR,NR,,,53.11013452,-2.49981563,POINT (-2.499815634 53.11013455621684),,,,,,,,,,,,,,,,,,,,,,,,,,,,,,,,,,Secondary,More Stringent: Phosphorus,0,0,NC,2018,2014-01-01T00:00:00,
UWWTD_United-Kingdom_UrbanWasteWaterTreatmentPlant.fid--515f29cd_17eb926cae9_-207d,2018_uww_UKENNW_UU_TP000041,UKENNW_UU_TP000041,UK,DARWEN STW,1,,ISCON,UKD41,30893,34599,1,1,0,0,0,0,0,0,0,,P,P,NR,NR,NR,,,53.7132971,-2.47148726,POINT (-2.4714872550000004 53.713297135523746),,,,,,,,,,,,,,,,,,,,,,,,,,,,,,,,,,Secondary,More Stringent: Phosphorus,0,0,NC,2018,2014-01-01T00:00:00,
UWWTD_United-Kingdom_UrbanWasteWaterTreatmentPlant.fid--515f29cd_17eb926cae9_-207c,2018_uww_UKENNW_UU_TP000069,UKENNW_UU_TP000069,UK,IRLAM STW,1,,ISCON,UKD34,13047,14369,1,1,0,0,0,0,0,0,0,,P,P,NR,NR,NR,,,53.42413281,-2.45022172,POINT (-2.4502217199999996 53.42413284586096),,,,,,,,,,,,,,,,,,,,,,,,,,,,,,,,,,Secondary,More Stringent: Phosphorus,0,0,NC,2018,2014-01-01T00:00:00,
UWWTD_United-Kingdom_UrbanWasteWaterTreatmentPlant.fid--515f29cd_17eb926cae9_-207b,2018_uww_UKENNW_UU_TP000094,UKENNW_UU_TP000094,UK,NANTWICH STW,1,,ISCON,UKD62,19116,19116,1,1,0,0,0,0,0,0,0,,P,P,NR,NR,NR,,,53.08357167,-2.51040614,POINT (-2.5104061439999996 53.083571706246424),,,,,,,,,,,,,,,,,,,,,,,,,,,,,,,,,,Secondary,More Stringent: Phosphorus,0,0,NC,2018,2014-01-01T00:00:00,
UWWTD_United-Kingdom_UrbanWasteWaterTreatmentPlant.fid--515f29cd_17eb926cae9_-207a,2018_uww_UKENNW_UU_TP000138,UKENNW_UU_TP000138,UK,WINSFORD STW,1,,ISCON,UKD63,35472,37658,1,1,0,0,0,0,0,0,0,,P,P,NR,NR,NR,,,53.20170307,-2.52344135,POINT (-2.5234413520000003 53.20170310611418),,,,,,,,,,,,,,,,,,,,,,,,,,,,,,,,,,Secondary,More Stringent: Phosphorus,0,0,NC,2018,2014-01-01T00:00:00,
UWWTD_United-Kingdom_UrbanWasteWaterTreatmentPlant.fid--515f29cd_17eb926cae9_-2079,2018_uww_UKENNW_UU_TP000052,UKENNW_UU_TP000052,UK,GARSTANG STW,1,,ISCON,UKD44,15199,15199,1,1,0,0,1,0,0,0,0,UV Treatment,P,P,NR,NR,NR,,,53.87832257,-2.79429823,POINT (-2.79429823 53.87832260532729),,,,,,,,,,,,,,,,,,,,,,,,,,,,,,,,,,More Stringent: Other,More Stringent: Phosphorus,0,0,NC,2018,2014-01-01T00:00:00,
UWWTD_United-Kingdom_UrbanWasteWaterTreatmentPlant.fid--515f29cd_17eb926cae9_-2078,2018_uww_UKENSW_WXW_TP000086,UKENSW_WXW_TP000086,UK,TAUNTON STW,1,,ISCON,UKK23,88843,113333,1,1,0,0,0,0,0,0,0,,P,P,NR,NR,NR,,,51.01581559,-3.02708904,POINT (-3.027089035 51.01581562829459),,,,,,,,,,,,,,,,,,,,,,,,,,,,,,,,,,Secondary,More Stringent: Phosphorus,0,0,NC,2018,2014-01-01T00:00:00,
UWWTD_United-Kingdom_UrbanWasteWaterTreatmentPlant.fid--515f29cd_17eb926cae9_-2077,2018_uww_UKENSW_WXW_TP000021,UKENSW_WXW_TP000021,UK,CHEDDAR STW,1,,ISCON,UKK23,10987,10987,1,1,0,0,0,0,0,0,0,,P,P,NR,NR,NR,,,51.26953368,-2.78962626,POINT (-2.7896262579999997 51.2695337180717),,,,,,,,,,,"Non-resident allowance of 1344 PE added 2015/16, allowance of 328 for schools and 185 for care homes added same year.",,,,,,,,,,,,,,,,,,,,,,,Secondary,More Stringent: Phosphorus,0,0,NC,2018,2014-01-01T00:00:00,
UWWTD_United-Kingdom_UrbanWasteWaterTreatmentPlant.fid--515f29cd_17eb926cae9_-2076,2018_uww_UKENAN_AW_TP000143,UKENAN_AW_TP000143,UK,INGOLDMELLS STW,1,,ISCON,UKF30,56329,100000,1,1,0,0,0,0,0,0,0,,P,F,NR,NR,NR,,1,53.18419919,0.32910573,POINT (0.329105725 53.184199226133885),,,,,,,,,,,,,,,,,,,,,,,,,,,,,,,,,,Secondary,Secondary,1,0,NC,2018,2014-01-01T00:00:00,
UWWTD_United-Kingdom_UrbanWasteWaterTreatmentPlant.fid--515f29cd_17eb926cae9_-2075,2018_uww_UKENAN_AW_TP000242,UKENAN_AW_TP000242,UK,SPALDING STW,1,,ISCON,UKF30,74831,81182,1,1,0,0,0,0,0,0,0,,P,F,NR,NR,NR,,1,52.80935774,-0.13098427,POINT (-0.130984269 52.809357776547365),,,,,,,,,,,,,,,,,,,,,,,,,,,,,,,,,,Secondary,Secondary,1,0,NC,2018,2014-01-01T00:00:00,
UWWTD_United-Kingdom_UrbanWasteWaterTreatmentPlant.fid--515f29cd_17eb926cae9_-2074,2018_uww_UKENAN_AW_TP000022,UKENAN_AW_TP000022,UK,BOCKING STW,1,,ISCON,UKH34,19760,21099,1,1,1,1,0,0,0,0,0,,P,P,NR,P,F,,1,51.89052632,0.57975572,POINT (0.579755723 51.8905263574917),,,,,,,,,,,,,,,,,,,,,,,,,,,,,,,,,,More Stringent: Other,More Stringent: Phosphorus,1,0,NC,2018,2014-01-01T00:00:00,
UWWTD_United-Kingdom_UrbanWasteWaterTreatmentPlant.fid--515f29cd_17eb926cae9_-2073,2018_uww_UKENAN_AW_TP000307,UKENAN_AW_TP000307,UK,"SOUTHEND SEWAGE WORKS, SOUTHEND ON""",1,,ISCON,UKH31,193550,223031,1,1,0,0,0,0,0,0,0,,P,F,NR,NR,NR,,1,51.5559613,0.71050094,POINT (0.7105009359999997 51.55596133781019),,,,,,,,,,,,,,,,,,,,,,,,,,,,,,,,,,Secondary,Secondary,1,0,NC,2018,2014-01-01T00:00:00,
UWWTD_United-Kingdom_UrbanWasteWaterTreatmentPlant.fid--515f29cd_17eb926cae9_-2072,2018_uww_UKENAN_AW_TP000267,UKENAN_AW_TP000267,UK,TOWCESTER STW,1,,ISCON,UKF24,11119,11119,1,1,1,1,0,0,0,0,0,"NSAF (X2), HSAF (X2)",P,P,NR,F,P,,1,52.13360558,-0.95371406,POINT (-0.9537140610000001 52.133605617251696),,,,,,,,,,,,,,,,,,,,,,,,,,,,,,,,,,More Stringent: Other,More Stringent: Nitrogen and Phosphorus,1,1,C,2018,2014-01-01T00:00:00,
UWWTD_United-Kingdom_UrbanWasteWaterTreatmentPlant.fid--515f29cd_17eb926cae9_-2071,2018_uww_UKENAN_AW_TP000241,UKENAN_AW_TP000241,UK,SOUTHWOLD STW,1,,ISCON,UKH14,9471,10247,1,1,0,0,0,0,0,0,0,,F,F,NR,NR,NR,,1,52.32924716,1.66619698,POINT (1.666196975 52.329247197053334),,,,,,,,,,,,,,,,,,,,,,,,,,,,,,,,,,Secondary,Secondary,1,0,NC,2018,2014-01-01T00:00:00,
UWWTD_United-Kingdom_UrbanWasteWaterTreatmentPlant.fid--515f29cd_17eb926cae9_-2070,2018_uww_UKENSW_SWS_TP000047,UKENSW_SWS_TP000047,UK,LOSTWITHIEL STW,1,,ISCON,UKK30,3018,3413,1,1,0,0,1,0,0,0,0,,F,P,NR,NR,NR,,1,50.39679497,-4.66476,POINT (-4.664760004 50.39679500880318),,,,,,,,,,,,,,,,,,,,,,,,,,,,,,,,,,More Stringent: Other,Secondary,1,0,NC,2018,2014-01-01T00:00:00,
UWWTD_United-Kingdom_UrbanWasteWaterTreatmentPlant.fid--515f29cd_17eb926cae9_-206f,2018_uww_UKENSO_SW_TP000007,UKENSO_SW_TP000007,UK,SOUTHAMPTON SOUTH EAST (WOOLSTON) STW,1,,ISCON,UKJ32,67005,67005,1,1,1,0,0,0,0,0,0,,P,P,NR,F,NR,,1,50.89125644,-1.38311432,POINT (-1.3831143200000002 50.89125647840097),,,,,,,,,,,,,,,,,,,,,,,,Nitrate failure on annual effluent mean and percentage reduction.,,,,,,,,,,More Stringent: Other,Secondary,1,1,C,2018,2014-01-01T00:00:00,
UWWTD_United-Kingdom_UrbanWasteWaterTreatmentPlant.fid--515f29cd_17eb926cae9_-206e,2018_uww_UKENNW_UU_TP000110,UKENNW_UU_TP000110,UK,LIVERPOOL (SANDON [NORTH LIVERPOOL DOCKS] ) STW,1,,ISCON,UKD72,645028,693484,1,1,0,0,0,0,0,0,0,,P,F,NR,NR,NR,,1,53.42817953,-3.00249642,POINT (-3.002496417 53.428179565856325),,,,,,,,,,,,,,,,,,,,,,,,,,,,,,,,,,Secondary,Secondary,1,0,NC,2018,2014-01-01T00:00:00,
UWWTD_United-Kingdom_UrbanWasteWaterTreatmentPlant.fid--515f29cd_17eb926cae9_-206d,2018_uww_UKENNE_YW_TP000110,UKENNE_YW_TP000110,UK,NORTH FERRIBY STW,1,,ISCON,UKE12,6696,6961,1,1,0,0,0,0,0,0,0,,F,P,NR,NR,NR,,1,53.71635229,-0.49911576,POINT (-0.4991157600000001 53.716352325520134),,,,,,,,,,,,,,,,,,,,,,,,,,,,,,,,,,Secondary,Secondary,1,0,NC,2018,2014-01-01T00:00:00,
UWWTD_United-Kingdom_UrbanWasteWaterTreatmentPlant.fid--515f29cd_17eb926cae9_-206c,2018_uww_UKSC_TP00001,UKSC_TP00001,UK,ABERFELDY WWTP,1,,ISCON,UKM77,3436,4200,1,1,0,0,0,0,0,0,0,,P,F,NR,NR,NR,,1,56.62291,-3.86239,POINT (-3.8623899999999995 56.62291003167842),,,,,,,,,,,,,0,0,,,,,,,,,,,,,,,,,,,,Secondary,Secondary,1,0,NC,2018,2014-01-01T00:00:00,
UWWTD_United-Kingdom_UrbanWasteWaterTreatmentPlant.fid--515f29cd_17eb926cae9_-206b,2018_uww_UKSC_TP00042,UKSC_TP00042,UK,COURSINGTON S.T.W.,1,,ISCON,UKM84,7841,14500,1,1,0,0,0,0,0,0,0,,P,P,NR,NR,F,,1,55.79773,-3.98458,POINT (-3.98458 55.7977300328452),,,,,,,,,,,,,0,1,,,,,,,,,,,,,,,,,,,,Secondary,Secondary,1,1,C,2018,2014-01-01T00:00:00,
UWWTD_United-Kingdom_UrbanWasteWaterTreatmentPlant.fid--515f29cd_17eb926cae9_-206a,2018_uww_UKSC_TP00050,UKSC_TP00050,UK,DALMARNOCK S.T.W.,1,,ISCON,UKM82,232840,330000,1,1,0,1,0,0,0,0,0,,F,P,NR,NR,P,,1,55.83499,-4.22094,POINT (-4.22094 55.834990032793705),,,,,,,,,,,,,0,0,,,,,,,,,,,,,,,,,,,,More Stringent: Other,More Stringent: Phosphorus,1,0,NC,2018,2014-01-01T00:00:00,
UWWTD_United-Kingdom_UrbanWasteWaterTreatmentPlant.fid--515f29cd_17eb926cae9_-2069,2018_uww_UKSC_TP00109,UKSC_TP00109,UK,KINNEIL KERSE WWTW,1,,ISCON,UKM76,49458,55900,1,1,0,0,0,0,0,0,0,,F,P,NR,NR,NR,,1,56.0117,-3.66935,POINT (-3.66935 56.01170003254789),,,,,,,,,,,,,0,0,,,,,,,,,,,,,,,,,,,,Secondary,Secondary,1,0,NC,2018,2014-01-01T00:00:00,
UWWTD_United-Kingdom_UrbanWasteWaterTreatmentPlant.fid--515f29cd_17eb926cae9_-2068,2018_uww_UKSC_TP00133,UKSC_TP00133,UK,MELROSE WWTW,1,,ISCON,UKM91,4365,3533,1,1,0,0,0,0,0,0,0,,F,P,NR,NR,NR,,1,55.60277,-2.71392,POINT (-2.71392 55.60277003311275),,,,,,,,,,,,,0,0,,,,,,,,,,,,,,,,,,,,Secondary,Secondary,1,0,NC,2018,2014-01-01T00:00:00,
UWWTD_United-Kingdom_UrbanWasteWaterTreatmentPlant.fid--515f29cd_17eb926cae9_-2067,2018_uww_UKSC_TP00208,UKSC_TP00208,UK,NEWTONMORE WWTP,1,,ISCON,UKM62,1841,2249,1,1,0,0,0,0,0,0,0,,F,F,NR,NR,NR,,1,57.06774,-4.10567,POINT (-4.105670000000001 57.067740031027974),,,,,,,,,,,,,0,0,,,,,,,,,,,,,,,,,,,,Secondary,Appropriate,2,2,NR,2018,2014-01-01T00:00:00,
UWWTD_United-Kingdom_UrbanWasteWaterTreatmentPlant.fid--515f29cd_17eb926cae9_-2066,2018_uww_UKWAWA_WW_TP000043,UKWAWA_WW_TP000043,UK,GOWERTON STW,1,,ISCON,UKL18,56653,56653,1,1,1,0,1,0,0,0,0,,P,P,NR,P,NR,,,51.65436973,-4.0338723,POINT (-4.0338723036963 51.654369762737964),,,,,,,,,,,,,,,,,,,,,,,,,,,,,,,,,,More Stringent: Other,More Stringent: Nitrogen,1,1,C,2018,,
UWWTD_United-Kingdom_UrbanWasteWaterTreatmentPlant.fid--515f29cd_17eb926cae9_-2065,2018_uww_UKWAWA_WW_TP000077,UKWAWA_WW_TP000077,UK,LLANELLI STW,1,,ISCON,UKL14,2503,58067,1,1,1,0,1,0,0,0,0,,P,P,NR,NR,NR,,,51.66425107,-4.10987034,POINT (-4.109870335501599 51.66425110963362),,,,,,,,,,,,,,,,,,,,,,,,,,,,,,,,,,More Stringent: Other,More Stringent: Nitrogen,1,0,NC,2018,,
UWWTD_United-Kingdom_UrbanWasteWaterTreatmentPlant.fid--515f29cd_17eb926cae9_-2064,2018_uww_UKSC_TP00140,UKSC_TP00140,UK,NAIRN WWTP,1,,ISCON,UKM62,13849,20000,1,1,0,0,1,0,0,0,0,,P,P,NR,NR,NR,,0,57.59305,-3.84764,POINT (-3.84764 57.59305003024228),,,,,,,,,,,,,0,0,,,,,,,,,,,,,,,,,,,,More Stringent: Other,Secondary,1,1,C,2018,2014-01-01T00:00:00,
UWWTD_United-Kingdom_UrbanWasteWaterTreatmentPlant.fid--515f29cd_17eb926cae9_-2063,2018_uww_UKSC_TP00141,UKSC_TP00141,UK,NEILSTON S.T.W.,1,,ISCON,UKM83,5793,6500,1,1,0,0,0,0,0,0,0,,P,P,NR,NR,NR,,0,55.78995,-4.42705,POINT (-4.4270499999999995 55.78995003285595),,,,,,,,,,,,,0,0,,,,,,,,,,,,,,,,,,,,Secondary,Secondary,1,1,C,2018,2014-01-01T00:00:00,
UWWTD_United-Kingdom_UrbanWasteWaterTreatmentPlant.fid--515f29cd_17eb926cae9_-2062,2018_uww_UKGIB_TP00001,UKGIB_TP00001,UK,Gibraltar Collecting System,1,,NOTCON,UKZZZ,55973,,0,0,0,0,0,0,0,0,0,,NR,NR,NR,NR,NR,,,36.139115,-5.352895,POINT (-5.352895 36.13911503524527),,,,,,,,,,,,,,,,,,,,,,,,,,,,,,,,,,,Secondary,0,0,PD,2018,,
UWWTD_United-Kingdom_UrbanWasteWaterTreatmentPlant.fid--515f29cd_17eb926cae9_-2061,2018_uww_UKSC_TP00139,UKSC_TP00139,UK,MUIR OF ORD NEW STW,1,,ISCON,UKM61,4773,5493,1,1,0,0,0,0,0,0,0,,P,P,NR,NR,NR,,0,57.50263,-4.41486,POINT (-4.414860000000001 57.50263003037881),,,,,,,,,,,,,0,0,,,,,,,,,,,,,,,,,,,,Secondary,Secondary,1,1,C,2018,2014-01-01T00:00:00,
UWWTD_United-Kingdom_UrbanWasteWaterTreatmentPlant.fid--515f29cd_17eb926cae9_-2060,2018_uww_UKENMI_ST_TP000131,UKENMI_ST_TP000131,UK,LICHFIELD STW,1,,ISCON,UKG24,38555,42500,1,1,0,1,0,0,0,1,0,,P,P,NR,NR,P,,,52.7135321,-1.81345871,POINT (-1.8134587080000004 52.713532136650485),,,,,,,,,,,,,,,,,,,,,,,,,,,,,,,,,,More Stringent: Other,More Stringent: Phosphorus,1,1,C,2018,2014-01-01T00:00:00,
UWWTD_United-Kingdom_UrbanWasteWaterTreatmentPlant.fid--515f29cd_17eb926cae9_-205f,2018_uww_UKENMI_ST_TP000132,UKENMI_ST_TP000132,UK,LITTLE ASTON STW,1,,ISCON,UKG24,22866,27500,1,1,0,0,0,0,0,0,0,,P,P,NR,NR,NR,,,52.61507525,-1.86527418,POINT (-1.8652741800000001 52.615075286755335),,,,,,,,,,,,,,,,,,,,,,,,,,,,,,,,,,Secondary,More Stringent: Phosphorus,0,0,NC,2018,2014-01-01T00:00:00,
UWWTD_United-Kingdom_UrbanWasteWaterTreatmentPlant.fid--515f29cd_17eb926cae9_-205e,2018_uww_UKENMI_ST_TP000086,UKENMI_ST_TP000086,UK,EDWINSTOWE STW,1,,ISCON,UKF15,18635,19000,1,1,0,1,0,0,0,1,0,,P,P,NR,NR,P,,,53.19571621,-1.0431976,POINT (-1.043197601 53.19571624612092),,,,,,,,,,,,,,,,,,,,,,,,,,,,,,,,,,More Stringent: Other,More Stringent: Phosphorus,1,1,C,2018,2014-01-01T00:00:00,
UWWTD_United-Kingdom_UrbanWasteWaterTreatmentPlant.fid--515f29cd_17eb926cae9_-205d,2018_uww_UKENSW_SWS_TP000072,UKENSW_SWS_TP000072,UK,TATWORTH STW,1,,ISCON,UKK23,2403,3188,1,1,0,0,0,0,0,0,0,,P,P,NR,NR,NR,,,50.83903559,-2.94216472,POINT (-2.9421647159999997 50.83903562844497),,,,,,,,,,,,,,,,,,,,,,,,,,,,,,,,,,Secondary,Secondary,1,1,C,2018,2014-01-01T00:00:00,
UWWTD_United-Kingdom_UrbanWasteWaterTreatmentPlant.fid--515f29cd_17eb926cae9_-205c,2018_uww_UKENSW_SWS_TP000073,UKENSW_SWS_TP000073,UK,TAVISTOCK STW,1,,ISCON,UKK43,13578,22973,1,1,0,0,0,0,0,0,0,Nitrifying Filter,P,P,NR,NR,NR,,,50.53077768,-4.15615519,POINT (-4.1561551880000005 50.53077771869739),,,,,,,,,,,,,,,,,,,,,,,,,,,,,,,,,,Secondary,Secondary,1,1,C,2018,2014-01-01T00:00:00,
UWWTD_United-Kingdom_UrbanWasteWaterTreatmentPlant.fid--515f29cd_17eb926cae9_-205b,2018_uww_UKENSW_SWS_TP000074,UKENSW_SWS_TP000074,UK,TIVERTON STW,1,,ISCON,UKK43,23667,31763,1,1,0,1,0,0,0,0,0,,P,P,NR,NR,P,,,50.88451597,-3.48693588,POINT (-3.486935883 50.88451600840667),,,,,,,,,,,,,,,,,,,,,,,,,,,,,,,,,,More Stringent: Other,More Stringent: Phosphorus,1,1,C,2018,2014-01-01T00:00:00,
UWWTD_United-Kingdom_UrbanWasteWaterTreatmentPlant.fid--515f29cd_17eb926cae9_-205a,2018_uww_UKENAN_AW_TP000148,UKENAN_AW_TP000148,UK,JAYWICK STW,1,,ISCON,UKH34,27184,54838,1,1,0,0,0,0,0,0,0,,P,P,NR,NR,NR,,,51.78614561,1.10226483,POINT (1.1022648310000003 51.786145647592555),,,,,,,,,,,,,,,,,,,,,,,,,,,,,,,,,,Secondary,Secondary,1,1,C,2018,2014-01-01T00:00:00,
UWWTD_United-Kingdom_UrbanWasteWaterTreatmentPlant.fid--515f29cd_17eb926cae9_-2059,2018_uww_UKENAN_AW_TP000149,UKENAN_AW_TP000149,UK,KEDINGTON STW,1,,ISCON,UKH14,2164,2760,1,1,0,0,0,0,0,0,0,,P,P,NR,NR,NR,,,52.08594346,0.48769324,POINT (0.4876932370000001 52.085943497299326),,,,,,,,,,,,,,,,,,,,,,,,,,,,,,,,,,Secondary,Secondary,1,1,C,2018,2014-01-01T00:00:00,
UWWTD_United-Kingdom_UrbanWasteWaterTreatmentPlant.fid--515f29cd_17eb926cae9_-2058,2018_uww_UKENNE_YW_TP000123,UKENNE_YW_TP000123,UK,WAKEFIELD (STANLEY (SMALLEY BIGHT)) STW,1,,ISCON,UKE45,19701,19701,1,1,0,0,0,0,0,0,0,,P,P,NR,NR,NR,,,53.70873297,-1.46822409,POINT (-1.4682240850000001 53.70873300552913),,,,,,,,,,,,,,,,,,,,,,,,,,,,,,,,,,Secondary,Secondary,1,1,C,2018,2014-01-01T00:00:00,
UWWTD_United-Kingdom_UrbanWasteWaterTreatmentPlant.fid--515f29cd_17eb926cae9_-2057,2018_uww_UKENNE_YW_TP000124,UKENNE_YW_TP000124,UK,SNAITH STW,1,,ISCON,UKE12,9283,10800,1,1,0,0,0,0,0,0,0,,P,P,NR,NR,NR,,,53.69374876,-1.03936523,POINT (-1.0393652300000003 53.69374879554683),,,,,,,,,,,,,,,,,,,,,,,,,,,,,,,,,,Secondary,Secondary,1,1,C,2018,2014-01-01T00:00:00,
UWWTD_United-Kingdom_UrbanWasteWaterTreatmentPlant.fid--515f29cd_17eb926cae9_-2056,2018_uww_UKENNE_YW_TP000125,UKENNE_YW_TP000125,UK,SKIPTON   STW,1,,ISCON,UKE22,19421,19957,1,1,0,0,0,0,0,0,0,,P,P,NR,NR,NR,,,53.94071939,-2.02100213,POINT (-2.021002126 53.94071942525226),,,,,,,,,,,,,,,,,,,,,,,,,,,,,,,,,,Secondary,Secondary,1,1,C,2018,2014-01-01T00:00:00,
UWWTD_United-Kingdom_UrbanWasteWaterTreatmentPlant.fid--515f29cd_17eb926cae9_-2055,2018_uww_UKSC_TP00081,UKSC_TP00081,UK,FORTH S.T.W.,1,,ISCON,UKM95,2392,3500,1,1,0,0,0,0,0,0,0,,P,P,NR,NR,NR,,0,55.76154,-3.67941,POINT (-3.679410000000002 55.761540032895105),,,,,,,,,,,,,0,0,,,,,,,,,,,,,,,,,,,,Secondary,Secondary,1,1,C,2018,2014-01-01T00:00:00,
UWWTD_United-Kingdom_UrbanWasteWaterTreatmentPlant.fid--515f29cd_17eb926cae9_-2054,2018_uww_UKSC_TP00082,UKSC_TP00082,UK,FRASERBURGH WWTW- ABERDEEN PFI,1,,ISCON,UKM50,26113,96667,1,1,0,0,1,0,0,0,0,,P,P,NR,NR,NR,,0,57.69087,-2.04895,POINT (-2.0489499999999996 57.69087003009401),,,,,,,,,,,,,0,0,,,,,,,,,,,,,,,,,,,,More Stringent: Other,Secondary,1,1,C,2018,2014-01-01T00:00:00,
UWWTD_United-Kingdom_UrbanWasteWaterTreatmentPlant.fid--515f29cd_17eb926cae9_-2053,2018_uww_UKENMI_ST_TP000087,UKENMI_ST_TP000087,UK,ELLESMERE WHARF MEADOW STW,1,,ISCON,UKG22,3623,6091,1,1,0,0,0,0,0,0,0,,P,P,NR,NR,NR,,,52.90140395,-2.89717843,POINT (-2.8971784320000005 52.901403986447306),,,,,,,,,,,Resident Population reduced,,,,,,,,,,,,,,,,,,,,,,,Secondary,Secondary,1,1,C,2018,2014-01-01T00:00:00,
UWWTD_United-Kingdom_UrbanWasteWaterTreatmentPlant.fid--515f29cd_17eb926cae9_-2052,2018_uww_UKENMI_ST_TP000088,UKENMI_ST_TP000088,UK,ENDON STW,1,,ISCON,UKG24,3492,4500,1,1,0,0,0,0,0,0,0,Chemical Dosing (iron),P,P,NR,NR,NR,,,53.08436002,-2.09447773,POINT (-2.094477733 53.08436005624556),,,,,,,,,,,,,,,,,,,,,,,,,,,,,,,,,,Secondary,Secondary,1,1,C,2018,2014-01-01T00:00:00,
UWWTD_United-Kingdom_UrbanWasteWaterTreatmentPlant.fid--515f29cd_17eb926cae9_-2051,2018_uww_UKENMI_ST_TP000089,UKENMI_ST_TP000089,UK,EPWORTH STW,1,,ISCON,UKE13,6790,7500,1,1,0,0,0,0,0,0,0,,P,P,NR,NR,NR,,,53.5502834,-0.85469955,POINT (-0.8546995449999999 53.550283435714945),,,,,,,,,,,,,,,,,,,,,,,,,,,,,,,,,,Secondary,Secondary,1,1,C,2018,2014-01-01T00:00:00,
UWWTD_United-Kingdom_UrbanWasteWaterTreatmentPlant.fid--515f29cd_17eb926cae9_-2050,2018_uww_UKENSW_WXW_TP000037,UKENSW_WXW_TP000037,UK,GLASTONBURY STW,1,,ISCON,UKK23,27004,43033,1,1,0,1,0,0,0,0,0,,P,P,NR,NR,P,,,51.14065058,-2.73576497,POINT (-2.735764971 51.14065061818592),,,,,,,,,,,,,,,,,,,,,,,,,,,,,,,,,,More Stringent: Other,More Stringent: Phosphorus,1,1,C,2018,2014-01-01T00:00:00,
UWWTD_United-Kingdom_UrbanWasteWaterTreatmentPlant.fid--515f29cd_17eb926cae9_-204f,2018_uww_UKENSW_SWS_TP000075,UKENSW_SWS_TP000075,UK,TORQUAY/ PAIGNTON/ BRIXHAM  ) STW,1,,ISCON,UKK42,171955,194378,1,1,0,0,1,0,0,0,0,,P,P,NR,NR,NR,,,50.39620827,-3.5532056,POINT (-3.5532056 50.396208308803644),,,,,,,,,,,,,,,,,,,,,,,,,,,,,,,,,,More Stringent: Other,Secondary,1,1,C,2018,2014-01-01T00:00:00,
UWWTD_United-Kingdom_UrbanWasteWaterTreatmentPlant.fid--515f29cd_17eb926cae9_-204e,2018_uww_UKENSW_WXW_TP000038,UKENSW_WXW_TP000038,UK,BOURNEMOUTH (HOLDENHURST) STW,1,,ISCON,UKK21,179225,187143,1,1,0,0,1,0,0,0,0,,P,P,NR,NR,NR,,,50.75491231,-1.81637689,POINT (-1.8163768910000002 50.754912348515106),,,,,,,,,,,,,,,,,,,,,,,,,,,,,,,,,,More Stringent: Other,Secondary,1,1,C,2018,2014-01-01T00:00:00,
UWWTD_United-Kingdom_UrbanWasteWaterTreatmentPlant.fid--515f29cd_17eb926cae9_-204d,2018_uww_UKENSW_WXW_TP000039,UKENSW_WXW_TP000039,UK,HURDCOTT STW,1,,ISCON,UKK15,3427,4283,1,1,0,0,0,0,0,1,0,P removal (non-UWWTD),P,P,NR,NR,NR,,,51.10309042,-1.76301528,POINT (-1.763015283 51.10309045821884),,,,,,,,,,,,,,,,,,,,,,,,,,,,,,,,,,More Stringent: Other,Secondary,1,1,C,2018,2014-01-01T00:00:00,
UWWTD_United-Kingdom_UrbanWasteWaterTreatmentPlant.fid--515f29cd_17eb926cae9_-204c,2018_uww_UKENAN_AW_TP000195,UKENAN_AW_TP000195,UK,NEWPORT STW,1,,ISCON,UKH35,2770,3127,1,1,0,0,0,0,0,0,0,,P,P,NR,NR,NR,,,51.98764308,0.21727318,POINT (0.217273178 51.987643117396686),,,,,,,,,,,,,,,,,,,,,,,,,,,,,,,,,,Secondary,Secondary,1,1,C,2018,2014-01-01T00:00:00,
UWWTD_United-Kingdom_UrbanWasteWaterTreatmentPlant.fid--515f29cd_17eb926cae9_-204b,2018_uww_UKENAN_AW_TP000196,UKENAN_AW_TP000196,UK,NEW HOLLAND,1,,ISCON,UKE13,5384,5734,1,1,0,0,0,0,0,0,0,,P,P,NR,NR,NR,,,53.70099684,-0.37029367,POINT (-0.370293667 53.70099687553828),,,,,,,,,,,,,,,,,,,,,,,,,,,,,,,,,,Secondary,Secondary,1,1,C,2018,2014-01-01T00:00:00,
UWWTD_United-Kingdom_UrbanWasteWaterTreatmentPlant.fid--515f29cd_17eb926cae9_-204a,2018_uww_UKENAN_AW_TP000197,UKENAN_AW_TP000197,UK,NORTH HYKEHAM STW,1,,ISCON,UKF30,19903,21982,1,1,0,1,0,0,0,0,0,,P,P,NR,NR,P,,,53.18273724,-0.56653581,POINT (-0.566535809 53.18273727613552),,,,,,,,,,,,,,,,,,,,,,,,,,,,,,,,,,More Stringent: Other,More Stringent: Phosphorus,1,1,C,2018,2014-01-01T00:00:00,
UWWTD_United-Kingdom_UrbanWasteWaterTreatmentPlant.fid--515f29cd_17eb926cae9_-2049,2018_uww_UKENSW_SWS_TP000076,UKENSW_SWS_TP000076,UK,TORPOINT STW,1,,ISCON,UKK30,8304,16052,1,1,0,0,0,0,0,0,0,,P,P,NR,NR,NR,,,50.36622537,-4.22966874,POINT (-4.22966874 50.366225408826985),,,,,,,,,,,,,,,,,,,,,,,,,,,,,,,,,,Secondary,Secondary,1,1,C,2018,2014-01-01T00:00:00,
UWWTD_United-Kingdom_UrbanWasteWaterTreatmentPlant.fid--515f29cd_17eb926cae9_-2048,2018_uww_UKENAN_AW_TP000150,UKENAN_AW_TP000150,UK,KEELBY STW,1,,ISCON,UKF30,2132,3222,1,1,0,0,0,0,0,0,0,,P,P,NR,NR,NR,,,53.57125131,-0.2363297,POINT (-0.236329698 53.57125134569054),,,,,,,,,,,,,,,,,,,,,,,,,,,,,,,,,,Secondary,Secondary,1,1,C,2018,2014-01-01T00:00:00,
UWWTD_United-Kingdom_UrbanWasteWaterTreatmentPlant.fid--515f29cd_17eb926cae9_-2047,2018_uww_UKENNW_UU_TP000015,UKENNW_UU_TP000015,UK,BILLINGE SOUTH STW,1,,ISCON,UKD71,6162,6565,1,1,0,0,0,0,0,0,0,,P,P,NR,NR,NR,,,53.48573655,-2.7191254,POINT (-2.7191254030000005 53.4857365857899),,,,,,,,,,,,,,,,,,,,,,,,,,,,,,,,,,Secondary,Secondary,1,1,C,2018,2014-01-01T00:00:00,
UWWTD_United-Kingdom_UrbanWasteWaterTreatmentPlant.fid--515f29cd_17eb926cae9_-2046,2018_uww_UKENNW_UU_TP000016,UKENNW_UU_TP000016,UK,BILLINGTON STW,1,,ISCON,UKD45,7065,7313,1,1,0,0,0,0,0,0,0,,P,P,NR,NR,NR,,,53.8211927,-2.43516321,POINT (-2.435163207000001 53.82119273539562),,,,,,,,,,,,,,,,,,,,,,,,,,,,,,,,,,Secondary,Secondary,1,1,C,2018,2014-01-01T00:00:00,
UWWTD_United-Kingdom_UrbanWasteWaterTreatmentPlant.fid--515f29cd_17eb926cae9_-2045,2018_uww_UKSC_TP00131,UKSC_TP00131,UK,MAYBOLE S.T.W.,1,,ISCON,UKM94,4885,6300,1,1,0,0,0,0,0,0,0,,P,P,NR,NR,NR,,0,55.34346,-4.66553,POINT (-4.66553 55.34346003346353),,,,,,,,,,,,,0,0,,,,,,,,,,,,,,,,,,,,Secondary,Secondary,1,1,C,2018,2014-01-01T00:00:00,
UWWTD_United-Kingdom_UrbanWasteWaterTreatmentPlant.fid--515f29cd_17eb926cae9_-2044,2018_uww_UKSC_TP00132,UKSC_TP00132,UK,MEADOWHEAD W.W.T. SERVICE,1,,ISCON,UKM93,332371,470250,1,1,0,0,0,0,0,0,0,,P,P,NR,NR,NR,,0,55.58788,-4.63858,POINT (-4.63858 55.58788003313307),,,,,,,,,,,,,0,0,,,,,,,,,,,,,,,,,,,,Secondary,Secondary,1,1,C,2018,2014-01-01T00:00:00,
UWWTD_United-Kingdom_UrbanWasteWaterTreatmentPlant.fid--515f29cd_17eb926cae9_-2043,2018_uww_UKENMI_ST_TP000133,UKENMI_ST_TP000133,UK,LLANIDLOES STW,1,,ISCON,UKL24,3535,3535,1,1,0,0,0,0,0,0,0,,P,P,NR,NR,NR,,,52.45600043,-3.50208543,POINT (-3.5020854275169 52.45600047177337),,,,,,,,,,,,,,,,,,,,,,,,,,,,,,,,,,Secondary,Secondary,1,1,C,2018,,
UWWTD_United-Kingdom_UrbanWasteWaterTreatmentPlant.fid--515f29cd_17eb926cae9_-2042,2018_uww_UKENMI_ST_TP000135,UKENMI_ST_TP000135,UK,LONG MARSTON STW,1,,ISCON,UKG13,2213,3000,1,1,0,0,0,0,0,1,0,,P,P,NR,NR,NR,,,52.13682689,-1.76663495,POINT (-1.766634949 52.13682692724846),,,,,,,,,,,,,,,,,,,,,,,,,,,,,,,,,,More Stringent: Other,Secondary,1,1,C,2018,2014-01-01T00:00:00,
UWWTD_United-Kingdom_UrbanWasteWaterTreatmentPlant.fid--515f29cd_17eb926cae9_-2041,2018_uww_UKENSW_WXW_TP000040,UKENSW_WXW_TP000040,UK,ILCHESTER STW,1,,ISCON,UKK23,2551,2659,1,1,0,0,0,0,0,0,0,,P,P,NR,NR,NR,,,51.00120531,-2.69043152,POINT (-2.6904315220000004 51.00120534830716),,,,,,,,,,,Allowance for MoD properties of 230 PE increase added 2016 onwards,,,,,,,,,,,,,,,,,,,,,,,Secondary,Secondary,1,1,C,2018,2014-01-01T00:00:00,
UWWTD_United-Kingdom_UrbanWasteWaterTreatmentPlant.fid--515f29cd_17eb926cae9_-2040,2018_uww_UKENSW_WXW_TP000041,UKENSW_WXW_TP000041,UK,ILMINSTER STW,1,,ISCON,UKK23,8462,8462,1,1,0,0,0,0,0,0,0,,P,P,NR,NR,NR,,,50.94300867,-2.91502941,POINT (-2.915029411 50.943008708357),,,,,,,,,,,,,,,,,,,,,,,,,,,,,,,,,,Secondary,Secondary,1,1,C,2018,2014-01-01T00:00:00,
UWWTD_United-Kingdom_UrbanWasteWaterTreatmentPlant.fid--515f29cd_17eb926cae9_-203f,2018_uww_UKENSW_WXW_TP000042,UKENSW_WXW_TP000042,UK,KEEVIL STW,1,,ISCON,UKK15,3500,8345,1,1,0,0,0,0,0,0,0,,P,P,NR,NR,NR,,,51.33131926,-2.10258816,POINT (-2.1025881629999996 51.331319298016155),,,,,,,,,,,,,,,,,,,,,,,,,,,,,,,,,,Secondary,Secondary,1,1,C,2018,2014-01-01T00:00:00,
UWWTD_United-Kingdom_UrbanWasteWaterTreatmentPlant.fid--515f29cd_17eb926cae9_-203e,2018_uww_UKENAN_AW_TP000199,UKENAN_AW_TP000199,UK,NORTH WALSHAM STW,1,,ISCON,UKH16,12884,29693,1,1,0,0,0,0,0,0,0,,P,P,NR,NR,NR,,,52.82530445,1.40672718,POINT (1.406727182 52.82530448653009),,,,,,,,,,,,,,,,,,,,,,,,,,,,,,,,,,Secondary,Secondary,1,1,C,2018,2014-01-01T00:00:00,
UWWTD_United-Kingdom_UrbanWasteWaterTreatmentPlant.fid--515f29cd_17eb926cae9_-203d,2018_uww_UKENAN_AW_TP000200,UKENAN_AW_TP000200,UK,NORWICH   STW,1,,ISCON,UKH17,293988,450000,1,1,0,1,0,0,0,0,0,,P,P,NR,NR,P,,,52.61670235,1.36426613,POINT (1.364266127 52.61670238675362),,,,,,,,,,,,,,,,,,,,,,,,,,,,,,,,,,More Stringent: Other,More Stringent: Phosphorus,1,1,C,2018,2014-01-01T00:00:00,
UWWTD_United-Kingdom_UrbanWasteWaterTreatmentPlant.fid--515f29cd_17eb926cae9_-203c,2018_uww_UKENAN_AW_TP000201,UKENAN_AW_TP000201,UK,OAKHAM STW,1,,ISCON,UKF22,11641,11877,1,1,0,1,0,0,0,0,0,,P,P,NR,NR,P,,,52.66892307,-0.70915486,POINT (-0.709154856 52.66892310669814),,,,,,,,,,,increase in domestic pe,,,,,,,,,,,,,,,,,,,,,,,More Stringent: Other,More Stringent: Phosphorus,1,1,C,2018,2014-01-01T00:00:00,
UWWTD_United-Kingdom_UrbanWasteWaterTreatmentPlant.fid--515f29cd_17eb926cae9_-203b,2018_uww_UKENNW_UU_TP000017,UKENNW_UU_TP000017,UK,BIRKENHEAD AND WALLASEY   STW,1,,ISCON,UKD74,182337,182337,1,1,0,0,0,0,0,0,0,,P,P,NR,NR,NR,,,53.39796474,-3.0103134,POINT (-3.010313402 53.39796477589105),,,,,,,,,,,,,,,,,,,,,,,,,,,,,,,,,,Secondary,Secondary,1,1,C,2018,2014-01-01T00:00:00,
UWWTD_United-Kingdom_UrbanWasteWaterTreatmentPlant.fid--515f29cd_17eb926cae9_-203a,2018_uww_UKENNW_UU_TP000018,UKENNW_UU_TP000018,UK,BLACKBURN STW,1,,ISCON,UKD45,294983,368722,1,1,0,0,1,0,0,0,0,UV Treatment & Tertiary biological aerated flooded filter (BAFF),P,P,NR,NR,NR,,,53.7595452,-2.60108605,POINT (-2.601086053 53.75954523546896),,,,,,,,,,,Large increase in trade effluent,,,,,,,,,,,,,,,,,,,,,,,More Stringent: Other,More Stringent: Phosphorus,0,0,NC,2018,2014-01-01T00:00:00,
UWWTD_United-Kingdom_UrbanWasteWaterTreatmentPlant.fid--515f29cd_17eb926cae9_-2039,2018_uww_UKENNW_UU_TP000019,UKENNW_UU_TP000019,UK,BOLTON STW,1,,ISCON,UKD36,396367,396367,1,1,0,1,0,0,0,0,0,Ferric dosing,P,P,NR,NR,P,,,53.53833716,-2.35531734,POINT (-2.3553173409999997 53.538337195728865),,,,,,,,,,,,,,,,,,,,,,,,,,,,,,,,,,More Stringent: Other,More Stringent: Phosphorus,1,1,C,2018,2014-01-01T00:00:00,
UWWTD_United-Kingdom_UrbanWasteWaterTreatmentPlant.fid--515f29cd_17eb926cae9_-2038,2018_uww_UKENAN_AW_TP000151,UKENAN_AW_TP000151,UK,KESSINGLAND STW,1,,ISCON,UKH14,7759,14040,1,1,0,0,0,0,0,0,0,,P,P,NR,NR,NR,,,52.41032609,1.72227205,POINT (1.7222720470000001 52.41032612696978),,,,,,,,,,,Reduction in domestic and holiday pe,,,,,,,,,,,,,,,,,,,,,,,Secondary,Secondary,1,1,C,2018,2014-01-01T00:00:00,
UWWTD_United-Kingdom_UrbanWasteWaterTreatmentPlant.fid--515f29cd_17eb926cae9_-2037,2018_uww_UKENAN_AW_TP000152,UKENAN_AW_TP000152,UK,KIBWORTH STW,1,,ISCON,UKF22,5297,5372,1,1,0,0,0,0,0,0,0,HSAF,P,P,NR,NR,NR,,,52.53521619,-0.98183531,POINT (-0.9818353139999999 52.53521622683958),,,,,,,,,,,,,,,,,,,,,,,,,,,,,,,,,,Secondary,Secondary,1,1,C,2018,2014-01-01T00:00:00,
UWWTD_United-Kingdom_UrbanWasteWaterTreatmentPlant.fid--515f29cd_17eb926cae9_-2036,2018_uww_UKENNE_YW_TP000126,UKENNE_YW_TP000126,UK,SOUTH ELMSALL STW,1,,ISCON,UKE45,35138,35138,1,1,0,0,0,0,0,0,0,,P,P,NR,NR,NR,,,53.59175667,-1.27283549,POINT (-1.272835487 53.59175670566658),,,,,,,,,,,,,,,,,,,,,,,,,,,,,,,,,,Secondary,Secondary,1,1,C,2018,2014-01-01T00:00:00,
UWWTD_United-Kingdom_UrbanWasteWaterTreatmentPlant.fid--515f29cd_17eb926cae9_-2035,2018_uww_UKENMI_ST_TP000136,UKENMI_ST_TP000136,UK,LONG WHATTON STW,1,,ISCON,UKF22,2533,6000,1,1,0,0,0,0,0,0,0,,P,P,NR,NR,NR,,,52.8052978,-1.2719269,POINT (-1.271926901 52.80529783655175),,,,,,,,,,,,,,,,,,,,,,,,,,,,,,,,,,Secondary,Secondary,1,1,C,2018,2014-01-01T00:00:00,
UWWTD_United-Kingdom_UrbanWasteWaterTreatmentPlant.fid--515f29cd_17eb926cae9_-2034,2018_uww_UKENMI_ST_TP000137,UKENMI_ST_TP000137,UK,LOUGHBOROUGH STW,1,,ISCON,UKF22,75001,80000,1,1,0,1,0,0,0,0,0,,P,P,NR,NR,P,,,52.78668012,-1.21411279,POINT (-1.2141127909999998 52.78668015657184),,,,,,,,,,,,,,,,,,,,,,,,,,,,,,,,,,More Stringent: Other,More Stringent: Phosphorus,1,1,C,2018,2014-01-01T00:00:00,
UWWTD_United-Kingdom_UrbanWasteWaterTreatmentPlant.fid--515f29cd_17eb926cae9_-2033,2018_uww_UKENMI_ST_TP000138,UKENMI_ST_TP000138,UK,LOWER GORNAL STW,1,,ISCON,UKG36,36187,40000,1,1,0,1,0,0,0,0,1,,P,P,NR,NR,P,,,52.51599334,-2.14585789,POINT (-2.1458578860000004 52.515993376859726),,,,,,,,,,,,,,,,,,,,,,,,,,,,,,,,,,More Stringent: Other,More Stringent: Phosphorus,1,1,C,2018,2014-01-01T00:00:00,
UWWTD_United-Kingdom_UrbanWasteWaterTreatmentPlant.fid--515f29cd_17eb926cae9_-2032,2018_uww_UKENSW_WXW_TP000043,UKENSW_WXW_TP000043,UK,KEYNSHAM STW,1,,ISCON,UKK12,18509,23417,1,1,0,1,0,0,0,0,0,,P,P,NR,NR,P,,,51.41686425,-2.48385156,POINT (-2.483851555 51.416864287938466),,,,,,,,,,,,,,,,,,,,,,,,,,,,,,,,,,More Stringent: Other,More Stringent: Phosphorus,1,1,C,2018,2014-01-01T00:00:00,
UWWTD_United-Kingdom_UrbanWasteWaterTreatmentPlant.fid--515f29cd_17eb926cae9_-2031,2018_uww_UKENNE_YW_TP000128,UKENNE_YW_TP000128,UK,STAVELEY STW,1,,ISCON,UKF12,31494,31494,1,1,0,0,0,0,0,0,0,,P,P,NR,NR,NR,,,53.28506955,-1.33579928,POINT (-1.335799278 53.285069586019915),,,,,,,,,,,,,,,,,,,,,,,,,,,,,,,,,,Secondary,Secondary,1,1,C,2018,2014-01-01T00:00:00,
UWWTD_United-Kingdom_UrbanWasteWaterTreatmentPlant.fid--515f29cd_17eb926cae9_-2030,2018_uww_UKENNE_YW_TP000129,UKENNE_YW_TP000129,UK,STOCKLEY STW,1,,ISCON,UKF12,2580,2580,1,1,0,0,0,0,0,0,0,,P,P,NR,NR,NR,,,53.20663561,-1.31111015,POINT (-1.311110152 53.20663564610863),,,,,,,,,,,,,,,,,,,,,,,,,,,,,,,,,,Secondary,Secondary,1,1,C,2018,2014-01-01T00:00:00,
UWWTD_United-Kingdom_UrbanWasteWaterTreatmentPlant.fid--515f29cd_17eb926cae9_-202f,2018_uww_UKSC_TP00083,UKSC_TP00083,UK,GALASHIELS WWTW,1,,ISCON,UKM91,30714,27000,1,1,0,1,0,0,0,0,0,Lagoons,P,P,NR,NR,P,,0,55.60661,-2.77468,POINT (-2.77468 55.606610033107515),,,,,,,,,,,,,0,0,,,,,,,,,,,,,,,,,,,,More Stringent: Other,More Stringent: Phosphorus,1,1,C,2018,2014-01-01T00:00:00,
UWWTD_United-Kingdom_UrbanWasteWaterTreatmentPlant.fid--515f29cd_17eb926cae9_-202e,2018_uww_UKENSW_WXW_TP000044,UKENSW_WXW_TP000044,UK,CLEVEDON / NAILSEA / YATTON   STW,1,,ISCON,UKK12,55069,64593,1,1,0,0,1,0,0,0,0,,P,P,NR,NR,NR,,,51.40934729,-2.87945139,POINT (-2.879451394 51.409347327945326),,,,,,,,,,,,,,,,,,,,,,,,,,,,,,,,,,More Stringent: Other,Secondary,1,1,C,2018,2014-01-01T00:00:00,
UWWTD_United-Kingdom_UrbanWasteWaterTreatmentPlant.fid--515f29cd_17eb926cae9_-202d,2018_uww_UKENSW_WXW_TP000045,UKENSW_WXW_TP000045,UK,BOURNEMOUTH (KINSON) STW,1,,ISCON,UKK21,44970,44970,1,1,0,0,1,0,0,0,0,,P,P,NR,NR,NR,,,50.76740734,-1.88254867,POINT (-1.882548674 50.76740737850474),,,,,,,,,,,,,,,,,,,,,,,,,,,,,,,,,,More Stringent: Other,Secondary,1,1,C,2018,2014-01-01T00:00:00,
UWWTD_United-Kingdom_UrbanWasteWaterTreatmentPlant.fid--515f29cd_17eb926cae9_-202c,2018_uww_UKENAN_AW_TP000202,UKENAN_AW_TP000202,UK,ODELL STW,1,,ISCON,UKH24,3615,4950,1,1,0,0,0,0,0,0,0,,P,P,NR,NR,NR,,,52.21476494,-0.56748238,POINT (-0.56748238 52.21476497716996),,,,,,,,,,,,,,,,,,,,,,,,,,,,,,,,,,Secondary,Secondary,1,1,C,2018,2014-01-01T00:00:00,
UWWTD_United-Kingdom_UrbanWasteWaterTreatmentPlant.fid--515f29cd_17eb926cae9_-202b,2018_uww_UKENAN_AW_TP000203,UKENAN_AW_TP000203,UK,OLD BUCKENHAM STW,1,,ISCON,UKH17,2418,2913,1,1,0,0,0,0,0,0,0,,P,P,NR,NR,NR,,,52.47391097,1.03449457,POINT (1.0344945649999997 52.47391100690371),,,,,,,,,,,Reduction in domestic pe,,,,,,,,,,,,,,,,,,,,,,,Secondary,Secondary,1,1,C,2018,2014-01-01T00:00:00,
UWWTD_United-Kingdom_UrbanWasteWaterTreatmentPlant.fid--515f29cd_17eb926cae9_-202a,2018_uww_UKENAN_AW_TP000204,UKENAN_AW_TP000204,UK,OLD LEAKE-SKIPMARSH LANE STW,1,,ISCON,UKF30,2497,2597,1,1,0,0,0,0,0,0,0,Biofiltration,P,P,NR,NR,NR,,,53.03079574,0.06990106,POINT (0.069901055 53.03079577630502),,,,,,,,,,,,,,,,,,,,,,,,,,,,,,,,,,Secondary,Secondary,1,1,C,2018,2014-01-01T00:00:00,
UWWTD_United-Kingdom_UrbanWasteWaterTreatmentPlant.fid--515f29cd_17eb926cae9_-2029,2018_uww_UKENNW_UU_TP000020,UKENNW_UU_TP000020,UK,BOWDEN STW,1,,ISCON,UKD34,7664,7673,1,1,0,0,0,0,0,0,0,,P,P,NR,NR,NR,,,53.36667668,-2.37793117,POINT (-2.377931174000001 53.36667671592691),,,,,,,,,,,,,,,,,,,,,,,,,,,,,,,,,,Secondary,Secondary,1,1,C,2018,2014-01-01T00:00:00,
UWWTD_United-Kingdom_UrbanWasteWaterTreatmentPlant.fid--515f29cd_17eb926cae9_-2028,2018_uww_UKENNW_UU_TP000021,UKENNW_UU_TP000021,UK,BRAMPTON   STW,1,,ISCON,UKD12,5470,5470,1,1,0,0,0,0,0,0,0,,P,P,NR,NR,NR,,,54.94105199,-2.76953542,POINT (-2.7695354210000005 54.94105202399592),,,,,,,,,,,,,,,,,,,,,,,,,,,,,,,,,,Secondary,Secondary,1,1,C,2018,2014-01-01T00:00:00,
UWWTD_United-Kingdom_UrbanWasteWaterTreatmentPlant.fid--515f29cd_17eb926cae9_-2027,2018_uww_UKENNW_UU_TP000022,UKENNW_UU_TP000022,UK,BRAYSTONES   STW,1,,ISCON,UKD11,10787,11011,1,1,0,0,0,0,0,0,0,,P,P,NR,NR,NR,,,54.43164814,-3.5310384,POINT (-3.531038404 54.431648174648046),,,,,,,,,,,,,,,,,,,,,,,,,,,,,,,,,,Secondary,Secondary,1,1,C,2018,2014-01-01T00:00:00,
UWWTD_United-Kingdom_UrbanWasteWaterTreatmentPlant.fid--515f29cd_17eb926cae9_-2026,2018_uww_UKSC_TP00134,UKSC_TP00134,UK,MINTLAW WWTP,1,,ISCON,UKM50,3476,6300,1,1,0,0,0,0,0,0,0,,P,P,NR,NR,NR,,0,57.51415,-2.00003,POINT (-2.0000300000000006 57.514150030361456),,,,,,,,,,,,,0,0,,,,,,,,,,,,,,,,,,,,Secondary,Secondary,1,1,C,2018,2014-01-01T00:00:00,
UWWTD_United-Kingdom_UrbanWasteWaterTreatmentPlant.fid--515f29cd_17eb926cae9_-2025,2018_uww_UKSC_TP00135,UKSC_TP00135,UK,MOFFAT S.T.W.,1,,ISCON,UKM92,3160,5000,1,1,0,0,0,0,0,0,0,,P,P,NR,NR,NR,,0,55.32532,-3.43408,POINT (-3.4340800000000002 55.32532003348782),,,,,,,,,,,,,0,0,,,,,,,,,,,,,,,,,,,,Secondary,Secondary,1,1,C,2018,2014-01-01T00:00:00,
UWWTD_United-Kingdom_UrbanWasteWaterTreatmentPlant.fid--515f29cd_17eb926cae9_-2024,2018_uww_UKSC_TP00136,UKSC_TP00136,UK,MONTROSE WWTP,1,,ISCON,UKM71,17674,42000,1,1,0,0,0,0,0,0,0,,P,P,NR,NR,NR,,0,56.73352,-2.45273,POINT (-2.45273 56.73352003151802),,,,,,,,,,,,,0,0,,,,,,,,,,,,,,,,,,,,Secondary,Secondary,1,1,C,2018,2014-01-01T00:00:00,
UWWTD_United-Kingdom_UrbanWasteWaterTreatmentPlant.fid--515f29cd_17eb926cae9_-2023,2018_uww_UKENMI_ST_TP000139,UKENMI_ST_TP000139,UK,LUDLOW STW,1,,ISCON,UKG22,12398,16000,1,1,0,1,0,0,0,1,0,,P,P,NR,NR,P,,,52.35329359,-2.71058043,POINT (-2.7105804330000005 52.35329362702863),,,,,,,,,,,,,,,,,,,,,,,,,,,,,,,,,,More Stringent: Other,More Stringent: Phosphorus,1,1,C,2018,2014-01-01T00:00:00,
UWWTD_United-Kingdom_UrbanWasteWaterTreatmentPlant.fid--515f29cd_17eb926cae9_-2022,2018_uww_UKENMI_ST_TP000140,UKENMI_ST_TP000140,UK,LUTTERWORTH STW,1,,ISCON,UKF22,11052,12000,1,1,0,1,0,0,0,0,0,,P,P,NR,NR,P,,,52.44025418,-1.22131862,POINT (-1.2213186180000002 52.440254216938754),,,,,,,,,,,,,,,,,,,,,,,,,,,,,,,,,,More Stringent: Other,More Stringent: Phosphorus,1,1,C,2018,2014-01-01T00:00:00,
UWWTD_United-Kingdom_UrbanWasteWaterTreatmentPlant.fid--515f29cd_17eb926cae9_-2021,2018_uww_UKENMI_ST_TP000141,UKENMI_ST_TP000141,UK,LYDNEY STW,1,,ISCON,UKK13,22722,23000,1,1,0,0,0,0,0,0,0,,P,P,NR,NR,NR,,,51.70251465,-2.52741184,POINT (-2.5274118370000003 51.702514687672384),,,,,,,,,,,Resident Population increased and Trade PE increased,,,,,,,,,,,,,,,,,,,,,,,Secondary,Secondary,1,1,C,2018,2014-01-01T00:00:00,
UWWTD_United-Kingdom_UrbanWasteWaterTreatmentPlant.fid--515f29cd_17eb926cae9_-2020,2018_uww_UKENSW_WXW_TP000046,UKENSW_WXW_TP000046,UK,LANGPORT STW,1,,ISCON,UKK23,8970,10668,1,1,0,0,0,0,0,0,0,,P,P,NR,NR,NR,,,51.03946558,-2.83659839,POINT (-2.8365983890000006 51.03946561827415),,,,,,,,,,,,,,,,,,,,,,,,,,,,,,,,,,Secondary,Secondary,1,1,C,2018,2014-01-01T00:00:00,
UWWTD_United-Kingdom_UrbanWasteWaterTreatmentPlant.fid--515f29cd_17eb926cae9_-201f,2018_uww_UKSC_TP00084,UKSC_TP00084,UK,GIRVAN S.T.W.,1,,ISCON,UKM94,15491,20250,1,1,0,0,0,0,0,0,0,,P,P,NR,NR,NR,,0,55.26102,-4.84906,POINT (-4.84906 55.26102003357379),,,,,,,,,,,,,0,0,,,,,,,,,,,,,,,,,,,,Secondary,Secondary,1,1,C,2018,2014-01-01T00:00:00,
UWWTD_United-Kingdom_UrbanWasteWaterTreatmentPlant.fid--515f29cd_17eb926cae9_-201e,2018_uww_UKENMI_ST_TP000090,UKENMI_ST_TP000090,UK,ETWALL STW,1,,ISCON,UKF13,2840,4500,1,1,0,0,0,0,0,0,0,,P,P,NR,NR,NR,,,52.87780761,-1.60741101,POINT (-1.6074110119999998 52.87780764647304),,,,,,,,,,,,,,,,,,,,,,,,,,,,,,,,,,Secondary,Secondary,1,1,C,2018,2014-01-01T00:00:00,
UWWTD_United-Kingdom_UrbanWasteWaterTreatmentPlant.fid--515f29cd_17eb926cae9_-201d,2018_uww_UKENSW_WXW_TP000047,UKENSW_WXW_TP000047,UK,LAVINGTON   STW,1,,ISCON,UKK15,4298,4860,1,1,0,0,0,0,0,0,0,,P,P,NR,NR,NR,,,51.2948669,-2.00283069,POINT (-2.0028306910000007 51.29486693804898),,,,,,,,,,,,,,,,,,,,,,,,,,,,,,,,,,Secondary,Secondary,1,1,C,2018,2014-01-01T00:00:00,
UWWTD_United-Kingdom_UrbanWasteWaterTreatmentPlant.fid--515f29cd_17eb926cae9_-201c,2018_uww_UKENSW_WXW_TP000048,UKENSW_WXW_TP000048,UK,LYTCHETT MINSTER STW,1,,ISCON,UKK22,8753,12074,1,1,0,0,1,0,0,0,0,,P,P,NR,NR,NR,,,50.73178276,-2.04707149,POINT (-2.047071486 50.73178279853421),,,,,,,,,,,,,,,,,,,,,,,,,,,,,,,,,,More Stringent: Other,Secondary,1,1,C,2018,2014-01-01T00:00:00,
UWWTD_United-Kingdom_UrbanWasteWaterTreatmentPlant.fid--515f29cd_17eb926cae9_-201b,2018_uww_UKENAN_AW_TP000205,UKENAN_AW_TP000205,UK,OLDHURST STW,1,,ISCON,UKH12,5073,5073,1,1,0,0,0,0,0,0,0,Tetiary RBC + microscreen/pebble bed  clarrifiers,P,P,NR,NR,NR,,,52.38266123,-0.09883424,POINT (-0.098834244 52.38266126699837),,,,,,,,,,,,,,,,,,,,,,,,,,,,,,,,,,Secondary,Secondary,1,1,C,2018,2014-01-01T00:00:00,
UWWTD_United-Kingdom_UrbanWasteWaterTreatmentPlant.fid--515f29cd_17eb926cae9_-201a,2018_uww_UKENAN_AW_TP000206,UKENAN_AW_TP000206,UK,OLNEY STW,1,,ISCON,UKJ12,7594,8640,1,1,0,0,0,0,0,0,0,,P,P,NR,NR,NR,,,52.16509931,-0.70445316,POINT (-0.7044531590000002 52.16509934722006),,,,,,,,,,,Reduction in holiday pe,,,,,,,,,,,,,,,,,,,,,,,Secondary,Secondary,1,1,C,2018,2014-01-01T00:00:00,
UWWTD_United-Kingdom_UrbanWasteWaterTreatmentPlant.fid--515f29cd_17eb926cae9_-2019,2018_uww_UKENAN_AW_TP000207,UKENAN_AW_TP000207,UK,OUNDLE STW,1,,ISCON,UKF25,6608,6608,1,1,0,0,0,0,0,0,0,,P,P,NR,NR,NR,,,52.49539438,-0.47102844,POINT (-0.4710284420000002 52.49539441688128),,,,,,,,,,,Increase in domestic pe,,,,,,,,,,,,,,,,,,,,,,,Secondary,Secondary,1,1,C,2018,2014-01-01T00:00:00,
UWWTD_United-Kingdom_UrbanWasteWaterTreatmentPlant.fid--515f29cd_17eb926cae9_-2018,2018_uww_UKENMI_ST_TP000091,UKENMI_ST_TP000091,UK,EVESHAM STW,1,,ISCON,UKG12,25657,27500,1,1,0,1,0,0,0,1,0,,P,P,NR,NR,P,,,52.10036738,-1.95500328,POINT (-1.9550032779999995 52.10036741728493),,,,,,,,,,,,,,,,,,,,,,,,,,,,,,,,,,More Stringent: Other,More Stringent: Phosphorus,1,1,C,2018,2014-01-01T00:00:00,
UWWTD_United-Kingdom_UrbanWasteWaterTreatmentPlant.fid--515f29cd_17eb926cae9_-2017,2018_uww_UKENMI_ST_TP000092,UKENMI_ST_TP000092,UK,FARNDON STW,1,,ISCON,UKF15,2599,2750,1,1,0,0,0,0,0,0,0,Addition of Chemical Dosing using Aluminium,P,P,NR,NR,NR,,,53.05596263,-0.83576885,POINT (-0.835768853 53.05596266627712),,,,,,,,,,,,,,,,,,,,,,,,,,,,,,,,,,Secondary,Secondary,1,1,C,2018,2014-01-01T00:00:00,
UWWTD_United-Kingdom_UrbanWasteWaterTreatmentPlant.fid--515f29cd_17eb926cae9_-2016,2018_uww_UKENSW_SWS_TP000077,UKENSW_SWS_TP000077,UK,TOTNES STW,1,,ISCON,UKK43,10600,14098,1,1,0,0,1,0,0,0,0,,P,P,NR,NR,NR,,,50.43729222,-3.68062804,POINT (-3.6806280350000007 50.43729225877147),,,,,,,,,,,,,,,,,,,,,,,,,,,,,,,,,,More Stringent: Other,Secondary,1,1,C,2018,2014-01-01T00:00:00,
UWWTD_United-Kingdom_UrbanWasteWaterTreatmentPlant.fid--515f29cd_17eb926cae9_-2015,2018_uww_UKENSW_SWS_TP000078,UKENSW_SWS_TP000078,UK,TRECERUS STW,1,,ISCON,UKK30,12586,17698,1,1,0,0,1,0,0,0,0,,P,P,NR,NR,NR,,,50.5357996,-4.95818086,POINT (-4.958180858 50.5357996386934),,,,,,,,,,,,,,,,,,,,,,,,,,,,,,,,,,More Stringent: Other,Secondary,1,1,C,2018,2014-01-01T00:00:00,
UWWTD_United-Kingdom_UrbanWasteWaterTreatmentPlant.fid--515f29cd_17eb926cae9_-2014,2018_uww_UKENSW_SWS_TP000079,UKENSW_SWS_TP000079,UK,TRURO (NEWHAM) STW,1,,ISCON,UKK30,28995,29143,1,1,1,0,1,0,0,0,0,,P,P,NR,P,NR,,,50.24943294,-5.04198343,POINT (-5.0419834329999995 50.249432978916765),,,,,,,,,,,,,,,,,,,,,,,,,,,,,,,,,,More Stringent: Other,More Stringent: Nitrogen and Other,1,1,C,2018,2014-01-01T00:00:00,
UWWTD_United-Kingdom_UrbanWasteWaterTreatmentPlant.fid--515f29cd_17eb926cae9_-2013,2018_uww_UKENNW_UU_TP000023,UKENNW_UU_TP000023,UK,BROMBOROUGH STW,1,,ISCON,UKD74,92435,154805,1,1,0,0,0,0,0,0,0,,P,P,NR,NR,NR,,,53.35942512,-2.98822948,POINT (-2.9882294840000005 53.359425155935185),,,,,,,,,,,,,,,,,,,,,,,,,,,,,,,,,,Secondary,Secondary,1,1,C,2018,2014-01-01T00:00:00,
UWWTD_United-Kingdom_UrbanWasteWaterTreatmentPlant.fid--515f29cd_17eb926cae9_-2012,2018_uww_UKENNW_UU_TP000024,UKENNW_UU_TP000024,UK,BURNLEY STW,1,,ISCON,UKD46,130176,145183,1,1,0,1,0,0,0,0,0,Ferric dosing,P,P,NR,NR,P,,,53.81208829,-2.26195272,POINT (-2.261952717 53.81208832540648),,,,,,,,,,,,,,,,,,,,,,,,,,,,,,,,,,More Stringent: Other,More Stringent: Phosphorus,1,1,C,2018,2014-01-01T00:00:00,
UWWTD_United-Kingdom_UrbanWasteWaterTreatmentPlant.fid--515f29cd_17eb926cae9_-2011,2018_uww_UKENNW_UU_TP000025,UKENNW_UU_TP000025,UK,BURSCOUGH STW,1,,ISCON,UKD47,34777,34885,1,1,0,0,0,0,0,0,0,Ferric dosing,P,P,NR,NR,NR,,,53.61299525,-2.87078194,POINT (-2.8707819380000004 53.61299528564174),,,,,,,,,,,,,,,,,,,,,,,,,,,,,,,,,,Secondary,Secondary,1,1,C,2018,2014-01-01T00:00:00,
UWWTD_United-Kingdom_UrbanWasteWaterTreatmentPlant.fid--515f29cd_17eb926cae9_-2010,2018_uww_UKSC_TP00137,UKSC_TP00137,UK,MORAY EAST WWTW MORAY PFI,1,,ISCON,UKM62,23863,35650,1,1,0,0,0,0,0,0,0,,P,P,NR,NR,NR,,0,57.67703,-2.943,POINT (-2.943 57.67703003011503),,,,,,,,,,,,,0,0,,,,,,,,,,,,,,,,,,,,Secondary,Secondary,1,1,C,2018,2014-01-01T00:00:00,
UWWTD_United-Kingdom_UrbanWasteWaterTreatmentPlant.fid--515f29cd_17eb926cae9_-200f,2018_uww_UKSC_TP00138,UKSC_TP00138,UK,"MORAY WEST, LOSSIEMOUTH,  STW",1,,ISCON,UKM62,44986,43117,1,1,0,0,0,0,0,0,0,,P,P,NR,NR,NR,,0,57.6998,-3.2581,POINT (-3.2581000000000007 57.69980003008045),,,,,,,,,,,,,0,0,,,,,,,,,,,,,,,,,,,,Secondary,Secondary,1,1,C,2018,2014-01-01T00:00:00,
UWWTD_United-Kingdom_UrbanWasteWaterTreatmentPlant.fid--515f29cd_17eb926cae9_-200e,2018_uww_UKENMI_ST_TP000142,UKENMI_ST_TP000142,UK,MALTBY STW,1,,ISCON,UKE31,33572,55000,1,1,0,1,0,0,0,1,0,,P,P,NR,NR,P,,,53.40904022,-1.19231315,POINT (-1.1923131509999998 53.40904025587834),,,,,,,,,,,,,,,,,,,,,,,,,,,,,,,,,,More Stringent: Other,More Stringent: Phosphorus,1,1,C,2018,2014-01-01T00:00:00,
UWWTD_United-Kingdom_UrbanWasteWaterTreatmentPlant.fid--515f29cd_17eb926cae9_-200d,2018_uww_UKENMI_ST_TP000143,UKENMI_ST_TP000143,UK,MANSFIELD STW,1,,ISCON,UKF15,93546,130000,1,1,0,1,0,0,0,1,0,,P,P,NR,NR,P,,,53.15610632,-1.18151361,POINT (-1.181513609 53.15610635616543),,,,,,,,,,,,,,,,,,,,,,,,,,,,,,,,,,More Stringent: Other,More Stringent: Phosphorus,1,1,C,2018,2014-01-01T00:00:00,
UWWTD_United-Kingdom_UrbanWasteWaterTreatmentPlant.fid--515f29cd_17eb926cae9_-200c,2018_uww_UKENMI_ST_TP000144,UKENMI_ST_TP000144,UK,MARCHINGTON  STW,0,,ISCON,UKG24,1360,3000,1,1,0,0,0,0,0,0,0,Reed beds,P,P,NR,NR,NR,,,52.8704059,-1.76658556,POINT (-1.7665855580000003 52.870405936481106),,,,,,,,,,,No UWWTR sampling - below 2000 threshold,,,,,,,,,,,,,,,,,,,,,,,Secondary,,2,2,NR,2018,2014-01-01T00:00:00,
UWWTD_United-Kingdom_UrbanWasteWaterTreatmentPlant.fid--515f29cd_17eb926cae9_-200b,2018_uww_UKENSW_WXW_TP000049,UKENSW_WXW_TP000049,UK,MALMESBURY STW,1,,ISCON,UKK15,11806,15417,1,1,0,1,0,0,0,0,0,,P,P,NR,NR,P,,,51.58177652,-2.08222653,POINT (-2.082226525 51.58177655778609),,,,,,,,,,,,,,,,,,,,,,,,,,,,,,,,,,More Stringent: Other,More Stringent: Phosphorus,1,1,C,2018,2014-01-01T00:00:00,
UWWTD_United-Kingdom_UrbanWasteWaterTreatmentPlant.fid--515f29cd_17eb926cae9_-200a,2018_uww_UKENSW_WXW_TP000050,UKENSW_WXW_TP000050,UK,MARNHULL   STW,1,,ISCON,UKK22,5779,9002,1,1,0,0,0,0,0,0,0,,P,P,NR,NR,NR,,,50.96068414,-2.33428617,POINT (-2.334286168 50.9606841783419),,,,,,,,,,,,,,,,,,,,,,,,,,,,,,,,,,Secondary,Secondary,1,1,C,2018,2014-01-01T00:00:00,
UWWTD_United-Kingdom_UrbanWasteWaterTreatmentPlant.fid--515f29cd_17eb926cae9_-2009,2018_uww_UKENSW_WXW_TP000051,UKENSW_WXW_TP000051,UK,MARTOCK   STW,1,,ISCON,UKK23,8616,9493,1,1,0,0,0,0,0,0,0,,P,P,NR,NR,NR,,,50.97166957,-2.78242608,POINT (-2.782426081 50.971669608332526),,,,,,,,,,,,,,,,,,,,,,,,,,,,,,,,,,Secondary,Secondary,1,1,C,2018,2014-01-01T00:00:00,
UWWTD_United-Kingdom_UrbanWasteWaterTreatmentPlant.fid--515f29cd_17eb926cae9_-2008,2018_uww_UKENAN_AW_TP000208,UKENAN_AW_TP000208,UK,OVER STW,1,,ISCON,UKH12,13092,13092,1,1,0,1,0,0,0,0,0,,P,P,NR,NR,P,,,52.31885396,0.03262648,POINT (0.03262648 52.31885399706398),,,,,,,,,,,,,,,,,,,,,,,,,,,,,,,,,,More Stringent: Other,More Stringent: Phosphorus,1,1,C,2018,2014-01-01T00:00:00,
UWWTD_United-Kingdom_UrbanWasteWaterTreatmentPlant.fid--515f29cd_17eb926cae9_-2007,2018_uww_UKENAN_AW_TP000209,UKENAN_AW_TP000209,UK,PAPWORTH EVERARD STW,1,,ISCON,UKH12,4804,4804,1,1,0,0,0,0,0,1,0,Tertiary lagoons/Reed,P,P,NR,NR,NR,,,52.2586668,-0.12510973,POINT (-0.125109728 52.25866683712541),,,,,,,,,,,Increase in domestic pe,,,,,,,,,,,,,,,,,,,,,,,More Stringent: Other,Secondary,1,1,C,2018,2014-01-01T00:00:00,
UWWTD_United-Kingdom_UrbanWasteWaterTreatmentPlant.fid--515f29cd_17eb926cae9_-2006,2018_uww_UKENAN_AW_TP000210,UKENAN_AW_TP000210,UK,PETERBOROUGH   STW,1,,ISCON,UKH11,213262,213262,1,1,0,0,0,0,0,0,0,,P,P,NR,NR,NR,,,52.56923553,-0.20166583,POINT (-0.20166583 52.56923556680378),,,,,,,,,,,,,,,,,,,,,,,,,,,,,,,,,,Secondary,Secondary,1,1,C,2018,2014-01-01T00:00:00,
UWWTD_United-Kingdom_UrbanWasteWaterTreatmentPlant.fid--515f29cd_17eb926cae9_-2005,2018_uww_UKENNW_UU_TP000026,UKENNW_UU_TP000026,UK,BURY STW,1,,ISCON,UKD37,189764,276925,1,1,0,1,0,0,0,0,0,Ferric dosing,P,P,NR,NR,P,,,53.56652534,-2.30285883,POINT (-2.3028588249999995 53.56652537569604),,,,,,,,,,,,,,,,,,,,,,,,,,,,,,,,,,More Stringent: Other,More Stringent: Phosphorus,1,1,C,2018,2014-01-01T00:00:00,
UWWTD_United-Kingdom_UrbanWasteWaterTreatmentPlant.fid--515f29cd_17eb926cae9_-2004,2018_uww_UKENAN_AW_TP000153,UKENAN_AW_TP000153,UK,KIMBOLTON STW,1,,ISCON,UKH12,3887,3955,1,1,0,0,0,0,0,0,0,HSAF,P,P,NR,NR,NR,,,52.27675475,-0.36379102,POINT (-0.363791019 52.276754787107),,,,,,,,,,,,,,,,,,,,,,,,,,,,,,,,,,Secondary,Secondary,1,1,C,2018,2014-01-01T00:00:00,
UWWTD_United-Kingdom_UrbanWasteWaterTreatmentPlant.fid--515f29cd_17eb926cae9_-2003,2018_uww_UKENNE_YW_TP000130,UKENNE_YW_TP000130,UK,STOCKSBRIDGE STW,1,,ISCON,UKE32,13816,13816,1,1,0,0,0,0,0,0,0,,P,P,NR,NR,NR,,,53.47464825,-1.5636151,POINT (-1.5636150959999995 53.47464828580271),,,,,,,,,,,,,,,,,,,,,,,,,,,,,,,,,,Secondary,Secondary,1,1,C,2018,2014-01-01T00:00:00,
UWWTD_United-Kingdom_UrbanWasteWaterTreatmentPlant.fid--515f29cd_17eb926cae9_-2002,2018_uww_UKENNE_YW_TP000131,UKENNE_YW_TP000131,UK,PONTEFRACT AND FERRYBRIDGE   STW,1,,ISCON,UKE22,64980,64980,1,1,0,0,0,0,0,0,0,,P,P,NR,NR,NR,,,53.72351459,-1.24192173,POINT (-1.241921727 53.72351462551166),,,,,,,,,,,,,,,,,,,,,,,,,,,,,,,,,,Secondary,Secondary,1,1,C,2018,2014-01-01T00:00:00,
UWWTD_United-Kingdom_UrbanWasteWaterTreatmentPlant.fid--515f29cd_17eb926cae9_-2001,2018_uww_UKENNE_YW_TP000133,UKENNE_YW_TP000133,UK,THORNE STW,1,,ISCON,UKE31,40160,40160,1,1,0,0,0,0,0,0,0,,P,P,NR,NR,NR,,,53.62392141,-0.97593556,POINT (-0.975935564 53.62392144562894),,,,,,,,,,,,,,,,,,,,,,,,,,,,,,,,,,Secondary,Secondary,1,1,C,2018,2014-01-01T00:00:00,
UWWTD_United-Kingdom_UrbanWasteWaterTreatmentPlant.fid--515f29cd_17eb926cae9_-2000,2018_uww_UKSC_TP00085,UKSC_TP00085,UK,GLENEAGLES STW,1,,ISCON,UKM77,3500,3500,1,1,0,0,0,0,0,0,0,,P,P,NR,NR,NR,,0,56.27982,-3.72833,POINT (-3.7283299999999997 56.27982003217009),,,,,,,,,,,,,0,0,,,,,,,,,,,,,,,,,,,,Secondary,Secondary,1,1,C,2018,2014-01-01T00:00:00,
UWWTD_United-Kingdom_UrbanWasteWaterTreatmentPlant.fid--515f29cd_17eb926cae9_-1fff,2018_uww_UKSC_TP00086,UKSC_TP00086,UK,GOREBRIDGE WWTW,1,,ISCON,UKM73,4034,5126,1,1,0,0,0,0,0,0,0,,P,P,NR,NR,NR,,0,55.84009,-3.05531,POINT (-3.05531 55.84009003278664),,,,,,,,,,,,,0,0,,,,,,,,,,,,,,,,,,,,Secondary,Secondary,1,1,C,2018,2014-01-01T00:00:00,
UWWTD_United-Kingdom_UrbanWasteWaterTreatmentPlant.fid--515f29cd_17eb926cae9_-1ffe,2018_uww_UKSC_TP00087,UKSC_TP00087,UK,GRANTOWN ON SPEY WWTP,1,,ISCON,UKM62,6092,6599,1,1,0,0,0,0,0,0,0,,P,P,NR,NR,NR,,0,57.32244,-3.61282,POINT (-3.6128200000000015 57.322440030649304),,,,,,,,,,,,,0,0,,,,,,,,,,,,,,,,,,,,Secondary,Secondary,1,1,C,2018,2014-01-01T00:00:00,
UWWTD_United-Kingdom_UrbanWasteWaterTreatmentPlant.fid--515f29cd_17eb926cae9_-1ffd,2018_uww_UKENMI_ST_TP000093,UKENMI_ST_TP000093,UK,FARNSFIELD STW,1,,ISCON,UKF15,3201,3500,1,1,0,0,0,0,0,0,0,,P,P,NR,NR,NR,,,53.09863446,-1.01159918,POINT (-1.0115991800000002 53.098634496229664),,,,,,,,,,,,,,,,,,,,,,,,,,,,,,,,,,Secondary,Secondary,1,1,C,2018,2014-01-01T00:00:00,
UWWTD_United-Kingdom_UrbanWasteWaterTreatmentPlant.fid--515f29cd_17eb926cae9_-1ffc,2018_uww_UKENMI_ST_TP000094,UKENMI_ST_TP000094,UK,FLECKNEY STW,1,,ISCON,UKF22,5063,5500,1,1,0,0,0,0,0,0,1,Chemical Dosing (iron) plus Tertiary Solids Removal (cloth filter),P,P,NR,NR,NR,,,52.54539277,-1.03218055,POINT (-1.0321805449999997 52.54539280682887),,,,,,,,,,,,,,,,,,,,,,,,,,,,,,,,,,More Stringent: Other,Secondary,1,1,C,2018,2014-01-01T00:00:00,
UWWTD_United-Kingdom_UrbanWasteWaterTreatmentPlant.fid--515f29cd_17eb926cae9_-1ffb,2018_uww_UKENMI_ST_TP000095,UKENMI_ST_TP000095,UK,FRAMPTON STW,1,,ISCON,UKK13,2309,3000,1,1,0,0,0,0,0,0,0,,P,P,NR,NR,NR,,,51.77572,-2.38390622,POINT (-2.3839062200000005 51.77572003760255),,,,,,,,,,,Resident Population reduced by 18%,,,,,,,,,,,,,,,,,,,,,,,Secondary,Secondary,1,1,C,2018,2014-01-01T00:00:00,
UWWTD_United-Kingdom_UrbanWasteWaterTreatmentPlant.fid--515f29cd_17eb926cae9_-1ffa,2018_uww_UKENNW_UU_TP000027,UKENNW_UU_TP000027,UK,CARLISLE STW,1,,ISCON,UKD12,116547,124401,1,1,0,0,0,0,0,0,0,Ferric dosing,P,P,NR,NR,NR,,,54.89976687,-2.95568819,POINT (-2.9556881920000007 54.8997669040497),,,,,,,,,,,,,,,,,,,,,,,,,,,,,,,,,,Secondary,Secondary,1,1,C,2018,2014-01-01T00:00:00,
UWWTD_United-Kingdom_UrbanWasteWaterTreatmentPlant.fid--515f29cd_17eb926cae9_-1ff9,2018_uww_UKENMI_ST_TP000145,UKENMI_ST_TP000145,UK,MAREHAY STW,1,,ISCON,UKF13,5901,6000,1,1,0,0,0,0,0,1,0,Sandfilter plus grass plot,P,P,NR,NR,NR,,,53.02872522,-1.40862895,POINT (-1.408628951 53.028725256307304),,,,,,,,,,,,,,,,,,,,,,,,,,,,,,,,,,More Stringent: Other,Secondary,1,1,C,2018,2014-01-01T00:00:00,
UWWTD_United-Kingdom_UrbanWasteWaterTreatmentPlant.fid--515f29cd_17eb926cae9_-1ff8,2018_uww_UKENMI_ST_TP000146,UKENMI_ST_TP000146,UK,MARKET BOSWORTH STW,1,,ISCON,UKF22,2528,3000,1,1,0,0,0,0,0,1,0,,P,P,NR,NR,NR,,,52.62155894,-1.42092352,POINT (-1.4209235209999997 52.62155897674848),,,,,,,,,,,,,,,,,,,,,,,,,,,,,,,,,,More Stringent: Other,Secondary,1,1,C,2018,2014-01-01T00:00:00,
UWWTD_United-Kingdom_UrbanWasteWaterTreatmentPlant.fid--515f29cd_17eb926cae9_-1ff7,2018_uww_UKENMI_ST_TP000147,UKENMI_ST_TP000147,UK,MARKET DRAYTON STW,1,,ISCON,UKG22,17167,17167,1,1,0,1,0,0,0,0,0,,P,P,NR,NR,P,,,52.89522491,-2.49421654,POINT (-2.4942165400000005 52.89522494645406),,,,,,,,,,,Resident Population increased and Trade PE increased,,,,,,,,,,,,,,,,,,,,,,,More Stringent: Other,More Stringent: Phosphorus,1,1,C,2018,2014-01-01T00:00:00,
UWWTD_United-Kingdom_UrbanWasteWaterTreatmentPlant.fid--515f29cd_17eb926cae9_-1ff6,2018_uww_UKENSW_SWS_TP000080,UKENSW_SWS_TP000080,UK,UFFCULME STW,1,,ISCON,UKK43,2475,2493,1,1,0,0,0,0,0,0,0,,P,P,NR,NR,NR,,,50.89833912,-3.33434842,POINT (-3.334348415 50.89833915839497),,,,,,,,,,,,,,,,,,,,,,,,,,,,,,,,,,Secondary,Secondary,1,1,C,2018,2014-01-01T00:00:00,
UWWTD_United-Kingdom_UrbanWasteWaterTreatmentPlant.fid--515f29cd_17eb926cae9_-1ff5,2018_uww_UKENSW_WXW_TP000052,UKENSW_WXW_TP000052,UK,MELKSHAM STW,1,,ISCON,UKK15,18012,19450,1,1,0,1,0,0,0,0,0,,P,P,NR,NR,P,,,51.37533283,-2.14564414,POINT (-2.1456441440000003 51.37533286797629),,,,,,,,,,,,,,,,,,,,,,,,,,,,,,,,,,More Stringent: Other,More Stringent: Phosphorus,1,1,C,2018,2014-01-01T00:00:00,
UWWTD_United-Kingdom_UrbanWasteWaterTreatmentPlant.fid--515f29cd_17eb926cae9_-1ff4,2018_uww_UKENSW_SWS_TP000081,UKENSW_SWS_TP000081,UK,WADEBRIDGE STW,1,,ISCON,UKK30,7708,12199,1,1,0,0,1,0,0,0,0,,P,P,NR,NR,NR,,,50.52502343,-4.84934797,POINT (-4.849347966 50.52502346870199),,,,,,,,,,,,,,,,,,,,,,,,,,,,,,,,,,More Stringent: Other,Secondary,1,1,C,2018,2014-01-01T00:00:00,
UWWTD_United-Kingdom_UrbanWasteWaterTreatmentPlant.fid--515f29cd_17eb926cae9_-1ff3,2018_uww_UKENSW_WXW_TP000053,UKENSW_WXW_TP000053,UK,MERE STW,1,,ISCON,UKK15,3217,8207,1,1,0,0,0,0,0,0,0,,P,P,NR,NR,NR,,,51.08327554,-2.26791378,POINT (-2.2679137800000007 51.08327557823612),,,,,,,,,,,,,,,,,,,,,,,,,,,,,,,,,,Secondary,Secondary,1,1,C,2018,2014-01-01T00:00:00,
UWWTD_United-Kingdom_UrbanWasteWaterTreatmentPlant.fid--515f29cd_17eb926cae9_-1ff2,2018_uww_UKENSW_WXW_TP000054,UKENSW_WXW_TP000054,UK,MERRIOTT STW,1,,ISCON,UKK23,3553,4950,1,1,0,0,0,0,0,1,0,,P,P,NR,NR,NR,,,50.91142755,-2.78127293,POINT (-2.781272934 50.911427588383866),,,,,,,,,,,,,,,,,,,,,,,,,,,,,,,,,,More Stringent: Other,Secondary,1,1,C,2018,2014-01-01T00:00:00,
UWWTD_United-Kingdom_UrbanWasteWaterTreatmentPlant.fid--515f29cd_17eb926cae9_-1ff1,2018_uww_UKENSW_SWS_TP000082,UKENSW_SWS_TP000082,UK,WILLAND STW,1,,ISCON,UKK43,3590,5068,1,1,0,0,0,0,0,1,0,,P,P,NR,NR,NR,,,50.88672054,-3.36465394,POINT (-3.3646539390000005 50.88672057840479),,,,,,,,,,,,,,,,,,,,,,,,,,,,,,,,,,More Stringent: Other,Secondary,1,1,C,2018,2014-01-01T00:00:00,
UWWTD_United-Kingdom_UrbanWasteWaterTreatmentPlant.fid--515f29cd_17eb926cae9_-1ff0,2018_uww_UKENAN_AW_TP000154,UKENAN_AW_TP000154,UK,KINGS LYNN STW,1,,ISCON,UKH16,64193,172000,1,1,0,0,0,0,0,0,0,,P,P,NR,NR,NR,,,52.77514958,0.37457694,POINT (0.374576937 52.7751496165843),,,,,,,,,,,Reduction in trade pe,,,,,,,,,,,,,,,,,,,,,,,Secondary,Secondary,1,1,C,2018,2014-01-01T00:00:00,
UWWTD_United-Kingdom_UrbanWasteWaterTreatmentPlant.fid--515f29cd_17eb926cae9_-1fef,2018_uww_UKENAN_AW_TP000155,UKENAN_AW_TP000155,UK,LACEBY STW,1,,ISCON,UKE13,3203,4672,1,1,0,0,0,0,0,0,0,HSAF,P,P,NR,NR,NR,,,53.54581836,-0.15811579,POINT (-0.158115788 53.54581839572015),,,,,,,,,,,,,,,,,,,,,,,,,,,,,,,,,,Secondary,Secondary,1,1,C,2018,2014-01-01T00:00:00,
UWWTD_United-Kingdom_UrbanWasteWaterTreatmentPlant.fid--515f29cd_17eb926cae9_-1fee,2018_uww_UKENAN_AW_TP000211,UKENAN_AW_TP000211,UK,POPPY HILL STW,1,,ISCON,UKH25,19948,19948,1,1,0,1,0,0,0,0,0,,P,P,NR,NR,P,,,52.0344376,-0.26510402,POINT (-0.265104023 52.03443763735047),,,,,,,,,,,,,,,,,,,,,,,,,,,,,,,,,,More Stringent: Other,More Stringent: Phosphorus,1,1,C,2018,2014-01-01T00:00:00,
UWWTD_United-Kingdom_UrbanWasteWaterTreatmentPlant.fid--515f29cd_17eb926cae9_-1fed,2018_uww_UKENAN_AW_TP000212,UKENAN_AW_TP000212,UK,PORINGLAND STW,0,,ISCON,UKH17,0,5391,1,1,0,0,0,0,0,1,0,80% of discharge only,P,P,NR,NR,NR,,,52.55784809,1.36800677,POINT (1.3680067690000002 52.55784812681578),,,,,,,,,,,,,,,,,,,,,,,,,,,,,,,,,,More Stringent: Other,,2,2,NR,2018,2014-01-01T00:00:00,
UWWTD_United-Kingdom_UrbanWasteWaterTreatmentPlant.fid--515f29cd_17eb926cae9_-1fec,2018_uww_UKENAN_AW_TP000213,UKENAN_AW_TP000213,UK,POTTON STW,1,,ISCON,UKH25,7748,7748,1,1,0,0,0,0,0,0,0,HSAFFs (solids removal),P,P,NR,NR,NR,,,52.12256109,-0.21847437,POINT (-0.218474374 52.122561127262756),,,,,,,,,,,Increase in trade pe,,,,,,,,,,,,,,,,,,,,,,,Secondary,Secondary,1,1,C,2018,2014-01-01T00:00:00,
UWWTD_United-Kingdom_UrbanWasteWaterTreatmentPlant.fid--515f29cd_17eb926cae9_-1feb,2018_uww_UKENNW_UU_TP000028,UKENNW_UU_TP000028,UK,CARNFORTH STW,1,,ISCON,UKD44,16368,16544,1,1,0,0,1,0,0,0,0,UV treatment,P,P,NR,NR,NR,,,54.12992516,-2.78409272,POINT (-2.784092718 54.12992519502232),,,,,,,,,,,,,,,,,,,,,,,,,,,,,,,,,,More Stringent: Other,Secondary,1,1,C,2018,2014-01-01T00:00:00,
UWWTD_United-Kingdom_UrbanWasteWaterTreatmentPlant.fid--515f29cd_17eb926cae9_-1fea,2018_uww_UKENNW_UU_TP000029,UKENNW_UU_TP000029,UK,CASTLETON STW,1,,ISCON,UKD37,5700,5886,1,1,0,0,0,0,0,0,0,,P,P,NR,NR,NR,,,53.58267944,-2.18228898,POINT (-2.182288982 53.58267947567719),,,,,,,,,,,,,,,,,,,,,,,,,,,,,,,,,,Secondary,Secondary,1,1,C,2018,2014-01-01T00:00:00,
UWWTD_United-Kingdom_UrbanWasteWaterTreatmentPlant.fid--515f29cd_17eb926cae9_-1fe9,2018_uww_UKSC_TP00142,UKSC_TP00142,UK,NEW CUMNOCK S.T.W.,1,,ISCON,UKM93,3803,6800,1,1,0,0,0,0,0,0,0,,P,P,NR,NR,NR,,0,55.40041,-4.17734,POINT (-4.177339999999999 55.40041003338699),,,,,,,,,,,,,0,0,,,,,,,,,,,,,,,,,,,,Secondary,Secondary,1,1,C,2018,2014-01-01T00:00:00,
UWWTD_United-Kingdom_UrbanWasteWaterTreatmentPlant.fid--515f29cd_17eb926cae9_-1fe8,2018_uww_UKSC_TP00143,UKSC_TP00143,UK,NEWBRIDGE WWTW,1,,ISCON,UKM75,39818,76133,1,1,0,1,0,0,0,0,0,,P,P,NR,NR,P,,0,55.94394,-3.39964,POINT (-3.39964 55.94394003264245),,,,,,,,,,,,,0,0,,,,,,,,,,,,,,,,,,,,More Stringent: Other,More Stringent: Phosphorus,1,1,C,2018,2014-01-01T00:00:00,
UWWTD_United-Kingdom_UrbanWasteWaterTreatmentPlant.fid--515f29cd_17eb926cae9_-1fe7,2018_uww_UKENAN_AW_TP000156,UKENAN_AW_TP000156,UK,LAKENHEATH STW,1,,ISCON,UKH14,4986,5000,1,1,0,0,0,0,0,0,0,Tertiary Lagoons,P,P,NR,NR,NR,,,52.42701025,0.51181549,POINT (0.511815492 52.427010286952495),,,,,,,,,,,,,,,,,,,,,,,,,,,,,,,,,,Secondary,Secondary,1,1,C,2018,2014-01-01T00:00:00,
UWWTD_United-Kingdom_UrbanWasteWaterTreatmentPlant.fid--515f29cd_17eb926cae9_-1fe6,2018_uww_UKENNE_YW_TP000134,UKENNE_YW_TP000134,UK,TUPTON STW,1,,ISCON,UKF12,10986,10986,1,1,0,0,0,0,0,0,0,,P,P,NR,NR,NR,,,53.19284728,-1.40472781,POINT (-1.4047278119999997 53.19284731612415),,,,,,,,,,,,,,,,,,,,,,,,,,,,,,,,,,Secondary,Secondary,1,1,C,2018,2014-01-01T00:00:00,
UWWTD_United-Kingdom_UrbanWasteWaterTreatmentPlant.fid--515f29cd_17eb926cae9_-1fe5,2018_uww_UKENNE_YW_TP000135,UKENNE_YW_TP000135,UK,"WATH ON DEARNE, BRAMPTON STW""",1,,ISCON,UKE31,19499,19499,1,1,0,0,0,0,0,0,0,,P,P,NR,NR,NR,,,53.50635889,-1.33340187,POINT (-1.333401867 53.50635892576599),,,,,,,,,,,,,,,,,,,,,,,,,,,,,,,,,,Secondary,Secondary,1,1,C,2018,2014-01-01T00:00:00,
UWWTD_United-Kingdom_UrbanWasteWaterTreatmentPlant.fid--515f29cd_17eb926cae9_-1fe4,2018_uww_UKENNE_YW_TP000136,UKENNE_YW_TP000136,UK,WATTON STW,1,,ISCON,UKE12,2219,2417,1,1,0,0,0,0,0,0,0,,P,P,NR,NR,NR,,,53.93682732,-0.45629871,POINT (-0.4562987130000001 53.93682735525696),,,,,,,,,,,,,,,,,,,,,,,,,,,,,,,,,,Secondary,Secondary,1,1,C,2018,2014-01-01T00:00:00,
UWWTD_United-Kingdom_UrbanWasteWaterTreatmentPlant.fid--515f29cd_17eb926cae9_-1fe3,2018_uww_UKSC_TP00088,UKSC_TP00088,UK,GRETNA S.T.W.,1,,ISCON,UKM92,4390,6000,1,1,0,0,0,0,0,0,0,,P,P,NR,NR,NR,,0,54.98824,-3.08139,POINT (-3.0813900000000003 54.988240033934254),,,,,,,,,,,,,0,0,,,,,,,,,,,,,,,,,,,,Secondary,Secondary,1,1,C,2018,2014-01-01T00:00:00,
UWWTD_United-Kingdom_UrbanWasteWaterTreatmentPlant.fid--515f29cd_17eb926cae9_-1fe2,2018_uww_UKSC_TP00089,UKSC_TP00089,UK,GUARDBRIDGE WWTW,1,,ISCON,UKM72,5202,5265,1,1,0,0,0,0,0,0,0,,P,P,NR,NR,NR,,0,56.3674,-2.88919,POINT (-2.8891900000000006 56.36740003204543),,,,,,,,,,,,,0,0,,,,,,,,,,,,,,,,,,,,Secondary,Secondary,1,1,C,2018,2014-01-01T00:00:00,
UWWTD_United-Kingdom_UrbanWasteWaterTreatmentPlant.fid--515f29cd_17eb926cae9_-1fe1,2018_uww_UKSC_TP00090,UKSC_TP00090,UK,HADDINGTON WWTW,1,,ISCON,UKM73,13144,14000,1,1,0,1,0,0,0,0,0,,P,P,NR,NR,P,,0,55.96044,-2.75174,POINT (-2.7517399999999994 55.96044003261946),,,,,,,,,,,,,0,0,,,,,,,,,,,,,,,,,,,,More Stringent: Other,More Stringent: Phosphorus,1,1,C,2018,2014-01-01T00:00:00,
UWWTD_United-Kingdom_UrbanWasteWaterTreatmentPlant.fid--515f29cd_17eb926cae9_-1fe0,2018_uww_UKENMI_ST_TP000096,UKENMI_ST_TP000096,UK,FRANKTON STW,1,,ISCON,UKG13,2221,2750,1,1,0,0,0,0,0,0,0,Chemical Dosing (iron),P,P,NR,NR,NR,,,52.32118808,-1.36601761,POINT (-1.366017607 52.321188117061595),,,,,,,,,,,Resident Population reduced by 10%,,,,,,,,,,,,,,,,,,,,,,,Secondary,Secondary,1,1,C,2018,2014-01-01T00:00:00,
UWWTD_United-Kingdom_UrbanWasteWaterTreatmentPlant.fid--515f29cd_17eb926cae9_-1fdf,2018_uww_UKSC_TP00144,UKSC_TP00144,UK,NEWBURGH WWTW,1,,ISCON,UKM72,2515,3000,1,1,0,0,0,0,0,0,0,,P,P,NR,NR,NR,,0,56.35425,-3.23325,POINT (-3.233249999999999 56.35425003206419),,,,,,,,,,,,,0,0,,,,,,,,,,,,,,,,,,,,Secondary,Secondary,1,1,C,2018,2014-01-01T00:00:00,
UWWTD_United-Kingdom_UrbanWasteWaterTreatmentPlant.fid--515f29cd_17eb926cae9_-1fde,2018_uww_UKENMI_ST_TP000148,UKENMI_ST_TP000148,UK,MATLOCK STW,1,,ISCON,UKF13,21697,25000,1,1,0,1,0,0,0,0,0,,P,P,NR,NR,P,,,53.10028464,-1.53101325,POINT (-1.531013251 53.10028467622781),,,,,,,,,,,,,,,,,,,,,,,,,,,,,,,,,,More Stringent: Other,More Stringent: Phosphorus,1,1,C,2018,2014-01-01T00:00:00,
UWWTD_United-Kingdom_UrbanWasteWaterTreatmentPlant.fid--515f29cd_17eb926cae9_-1fdd,2018_uww_UKENMI_ST_TP000149,UKENMI_ST_TP000149,UK,MATTERSEY THORPE STW,1,,ISCON,UKF15,6081,6500,1,1,0,0,0,0,0,0,0,,P,P,NR,NR,NR,,,53.40390117,-0.98949829,POINT (-0.9894982910000003 53.40390120588423),,,,,,,,,,,,,,,,,,,,,,,,,,,,,,,,,,Secondary,Secondary,1,1,C,2018,2014-01-01T00:00:00,
UWWTD_United-Kingdom_UrbanWasteWaterTreatmentPlant.fid--515f29cd_17eb926cae9_-1fdc,2018_uww_UKENMI_ST_TP000150,UKENMI_ST_TP000150,UK,MEASHAM STW,1,,ISCON,UKF22,8444,9882,1,1,0,0,0,0,0,1,0,,P,P,NR,NR,NR,,,52.70283809,-1.52462683,POINT (-1.5246268290000002 52.70283812666193),,,,,,,,,,,,,,,,,,,,,,,,,,,,,,,,,,More Stringent: Other,Secondary,1,1,C,2018,2014-01-01T00:00:00,
UWWTD_United-Kingdom_UrbanWasteWaterTreatmentPlant.fid--515f29cd_17eb926cae9_-1fdb,2018_uww_UKENSW_WXW_TP000055,UKENSW_WXW_TP000055,UK,MICHAELWOOD STW,1,,ISCON,UKK13,3048,5930,1,1,0,0,0,0,0,0,0,,P,P,NR,NR,NR,,,51.65540534,-2.4388306,POINT (-2.4388305970000004 51.655405377716974),,,,,,,,,,,,,,,,,,,,,,,,,,,,,,,,,,Secondary,Secondary,1,1,C,2018,2014-01-01T00:00:00,
UWWTD_United-Kingdom_UrbanWasteWaterTreatmentPlant.fid--515f29cd_17eb926cae9_-1fda,2018_uww_UKENSW_WXW_TP000056,UKENSW_WXW_TP000056,UK,MILBORNE PORT STW,1,,ISCON,UKK23,4333,4794,1,1,0,0,0,0,0,0,0,,P,P,NR,NR,NR,,,50.95471185,-2.45212549,POINT (-2.452125491 50.95471188834703),,,,,,,,,,,,,,,,,,,,,,,,,,,,,,,,,,Secondary,Secondary,1,1,C,2018,2014-01-01T00:00:00,
UWWTD_United-Kingdom_UrbanWasteWaterTreatmentPlant.fid--515f29cd_17eb926cae9_-1fd9,2018_uww_UKENSW_WXW_TP000057,UKENSW_WXW_TP000057,UK,MINEHEAD STW,1,,ISCON,UKK23,26711,34143,1,1,0,0,1,0,0,0,0,,P,P,NR,NR,NR,,,51.19592303,-3.44498854,POINT (-3.444988543 51.19592306813719),,,,,,,,,,,,,,,,,,,,,,,,,,,,,,,,,,More Stringent: Other,More Stringent,1,1,C,2018,2014-01-01T00:00:00,
UWWTD_United-Kingdom_UrbanWasteWaterTreatmentPlant.fid--515f29cd_17eb926cae9_-1fd8,2018_uww_UKENAN_AW_TP000214,UKENAN_AW_TP000214,UK,RAMSEY STW,1,,ISCON,UKH12,10068,10068,1,1,0,1,0,0,0,0,0,Tertiary Settlement Lagoon,P,P,NR,NR,P,,,52.45847107,-0.10581454,POINT (-0.105814541 52.4584711069198),,,,,,,,,,,,,,,,,,,,,,,,,,,,,,,,,,More Stringent: Other,More Stringent: Phosphorus,1,1,C,2018,2014-01-01T00:00:00,
UWWTD_United-Kingdom_UrbanWasteWaterTreatmentPlant.fid--515f29cd_17eb926cae9_-1fd7,2018_uww_UKENMI_ST_TP000097,UKENMI_ST_TP000097,UK,FRITCHLEY STW,1,,ISCON,UKF13,2111,2400,1,1,0,0,0,0,0,0,0,,P,P,NR,NR,NR,,,53.06853074,-1.46196058,POINT (-1.461960581 53.06853077626316),,,,,,,,,,,,,,,,,,,,,,,,,,,,,,,,,,Secondary,Secondary,1,1,C,2018,2014-01-01T00:00:00,
UWWTD_United-Kingdom_UrbanWasteWaterTreatmentPlant.fid--515f29cd_17eb926cae9_-1fd6,2018_uww_UKENMI_ST_TP000098,UKENMI_ST_TP000098,UK,GAINSBOROUGH STW,1,,ISCON,UKF30,26309,30000,1,1,0,1,0,0,0,0,0,,P,P,NR,NR,P,,,53.37753166,-0.77485484,POINT (-0.7748548429999998 53.37753169591447),,,,,,,,,,,,,,,,,,,,,,,,,,,,,,,,,,More Stringent: Other,More Stringent: Phosphorus,1,1,C,2018,2014-01-01T00:00:00,
UWWTD_United-Kingdom_UrbanWasteWaterTreatmentPlant.fid--515f29cd_17eb926cae9_-1fd5,2018_uww_UKENNW_UU_TP000030,UKENNW_UU_TP000030,UK,CATON STW,1,,ISCON,UKD44,2593,10498,1,1,0,0,0,0,0,0,0,,P,P,NR,NR,NR,,,54.07932387,-2.72092971,POINT (-2.720929708 54.079323905084166),,,,,,,,,,,,,,,,,,,,,,,,,,,,,,,,,,Secondary,Secondary,1,1,C,2018,2014-01-01T00:00:00,
UWWTD_United-Kingdom_UrbanWasteWaterTreatmentPlant.fid--515f29cd_17eb926cae9_-1fd4,2018_uww_UKENSW_SWS_TP000083,UKENSW_SWS_TP000083,UK,WOODBURY STW,1,,ISCON,UKK43,2460,2590,1,1,0,0,0,0,0,0,0,Reed Bed,P,P,NR,NR,NR,,,50.67190468,-3.41721532,POINT (-3.4172153169999993 50.67190471858337),,,,,,,,,,,,,,,,,,,,,,,,,,,,,,,,,,Secondary,Secondary,1,1,C,2018,2014-01-01T00:00:00,
UWWTD_United-Kingdom_UrbanWasteWaterTreatmentPlant.fid--515f29cd_17eb926cae9_-1fd3,2018_uww_UKENSW_SWS_TP000084,UKENSW_SWS_TP000084,UK,WOOLACOMBE STW,1,,ISCON,UKK43,10122,16337,1,1,0,0,1,0,0,0,0,,P,P,NR,NR,NR,,,51.16855119,-4.20490249,POINT (-4.204902492 51.168551228161384),,,,,,,,,,,,,,,,,,,,,,,,,,,,,,,,,,More Stringent: Other,Secondary,1,1,C,2018,2014-01-01T00:00:00,
UWWTD_United-Kingdom_UrbanWasteWaterTreatmentPlant.fid--515f29cd_17eb926cae9_-1fd2,2018_uww_UKENNW_UU_TP000031,UKENNW_UU_TP000031,UK,CHAPEL-EN-LE-FRITH STW,1,,ISCON,UKF13,7328,8202,1,1,0,0,0,0,0,0,0,,P,P,NR,NR,NR,,,53.33507585,-1.92924607,POINT (-1.9292460670000002 53.335075885963015),,,,,,,,,,,,,,,,,,,,,,,,,,,,,,,,,,Secondary,Secondary,1,1,C,2018,2014-01-01T00:00:00,
UWWTD_United-Kingdom_UrbanWasteWaterTreatmentPlant.fid--515f29cd_17eb926cae9_-1fd1,2018_uww_UKENNW_UU_TP000032,UKENNW_UU_TP000032,UK,CHORLEY STW,1,,ISCON,UKD47,68838,68838,1,1,0,1,0,0,0,0,0,Ferric dosing,P,P,NR,NR,P,,,53.65385697,-2.6583164,POINT (-2.6583163960000005 53.65385700559379),,,,,,,,,,,Large increase in trade effluent,,,,,,,,,,,,,,,,,,,,,,,More Stringent: Other,More Stringent: Phosphorus,1,1,C,2018,2014-01-01T00:00:00,
UWWTD_United-Kingdom_UrbanWasteWaterTreatmentPlant.fid--515f29cd_17eb926cae9_-1fd0,2018_uww_UKSC_TP00145,UKSC_TP00145,UK,NEWMACHAR WWTP,1,,ISCON,UKM50,3450,3640,1,1,0,0,0,0,0,0,0,,P,P,NR,NR,NR,,0,57.25728,-2.17836,POINT (-2.1783599999999996 57.2572800307466),,,,,,,,,,,,,0,0,,,,,,,,,,,,,,,,,,,,Secondary,Secondary,1,1,C,2018,2014-01-01T00:00:00,
UWWTD_United-Kingdom_UrbanWasteWaterTreatmentPlant.fid--515f29cd_17eb926cae9_-1fcf,2018_uww_UKSC_TP00147,UKSC_TP00147,UK,NEWTON STEWART STW,1,,ISCON,UKM92,4749,8966,1,1,0,0,0,0,0,0,0,,P,P,NR,NR,NR,,0,54.94918,-4.46568,POINT (-4.46568 54.94918003398531),,,,,,,,,,,,,0,0,,,,,,,,,,,,,,,,,,,,Secondary,Secondary,1,1,C,2018,2014-01-01T00:00:00,
UWWTD_United-Kingdom_UrbanWasteWaterTreatmentPlant.fid--515f29cd_17eb926cae9_-1fce,2018_uww_UKENSW_WXW_TP000001,UKENSW_WXW_TP000001,UK,ALMONDSBURY STW,1,,ISCON,UKK12,2698,2698,1,1,0,0,0,0,0,0,0,,P,P,NR,NR,NR,,,51.56202428,-2.57718347,POINT (-2.5771834679999994 51.562024317804536),,,,,,,,,,,,,,,,,,,,,,,,,,,,,,,,,,Secondary,Secondary,1,1,C,2018,2014-01-01T00:00:00,
UWWTD_United-Kingdom_UrbanWasteWaterTreatmentPlant.fid--515f29cd_17eb926cae9_-1fcd,2018_uww_UKENAN_AW_TP000157,UKENAN_AW_TP000157,UK,LATCHINGDON STW,1,,ISCON,UKH36,2681,3520,1,1,0,0,0,0,0,0,0,Lagoon,P,P,NR,NR,NR,,,51.68099498,0.71534572,POINT (0.715345717 51.68099501769279),,,,,,,,,,,,,,,,,,,,,,,,,,,,,,,,,,Secondary,Secondary,1,1,C,2018,2014-01-01T00:00:00,
UWWTD_United-Kingdom_UrbanWasteWaterTreatmentPlant.fid--515f29cd_17eb926cae9_-1fcc,2018_uww_UKENNE_YW_TP000137,UKENNE_YW_TP000137,UK,WHELDALE   STW,1,,ISCON,UKE45,33132,40721,1,1,0,0,0,0,0,0,0,,P,P,NR,NR,NR,,,53.73194796,-1.32983993,POINT (-1.329839927 53.73194799550168),,,,,,,,,,,,,,,,,,,,,,,,,,,,,,,,,,Secondary,Secondary,1,1,C,2018,2014-01-01T00:00:00,
UWWTD_United-Kingdom_UrbanWasteWaterTreatmentPlant.fid--515f29cd_17eb926cae9_-1fcb,2018_uww_UKSC_TP00148,UKSC_TP00148,UK,NEWTOWN ST BOSWELL WWTW,1,,ISCON,UKM91,1774,2033,1,1,0,0,0,0,0,1,0,,P,P,NR,NR,NR,,0,55.57801,-2.66495,POINT (-2.6649499999999997 55.57801003314651),,,,,,,,,,,,,0,0,,,,,,,,,,,,,,,,,,,,More Stringent: Other,Appropriate,2,2,NR,2018,2014-01-01T00:00:00,
UWWTD_United-Kingdom_UrbanWasteWaterTreatmentPlant.fid--515f29cd_17eb926cae9_-1fca,2018_uww_UKENMI_ST_TP000151,UKENMI_ST_TP000151,UK,MELBOURNE STW,1,,ISCON,UKF13,5405,5500,1,1,0,0,0,0,0,0,0,,P,P,NR,NR,NR,,,52.82544379,-1.42057773,POINT (-1.4205777270000002 52.82544382652995),,,,,,,,,,,,,,,,,,,,,,,,,,,,,,,,,,Secondary,Secondary,1,1,C,2018,2014-01-01T00:00:00,
UWWTD_United-Kingdom_UrbanWasteWaterTreatmentPlant.fid--515f29cd_17eb926cae9_-1fc9,2018_uww_UKENMI_ST_TP000152,UKENMI_ST_TP000152,UK,MELTON MOWBRAY STW,1,,ISCON,UKF22,68102,80000,1,1,0,1,0,0,0,1,0,,P,P,NR,NR,P,,,52.75715034,-0.91250701,POINT (-0.9125070110000001 52.757150376603676),,,,,,,,,,,,,,,,,,,,,,,,,,,,,,,,,,More Stringent: Other,More Stringent: Phosphorus,1,1,C,2018,2014-01-01T00:00:00,
UWWTD_United-Kingdom_UrbanWasteWaterTreatmentPlant.fid--515f29cd_17eb926cae9_-1fc8,2018_uww_UKENMI_ST_TP000153,UKENMI_ST_TP000153,UK,MERIDEN STW,1,,ISCON,UKG32,2648,3250,1,1,0,0,0,0,0,0,0,Reed bed,P,P,NR,NR,NR,,,52.43322912,-1.65358383,POINT (-1.653583833 52.433229156946034),,,,,,,,,,,,,,,,,,,,,,,,,,,,,,,,,,Secondary,Secondary,1,1,C,2018,2014-01-01T00:00:00,
UWWTD_United-Kingdom_UrbanWasteWaterTreatmentPlant.fid--515f29cd_17eb926cae9_-1fc7,2018_uww_UKENSW_WXW_TP000058,UKENSW_WXW_TP000058,UK,NETHER STOWEY STW,1,,ISCON,UKK23,2902,4116,1,1,0,0,0,0,0,1,0,,P,P,NR,NR,NR,,,51.15656433,-3.13231046,POINT (-3.132310464 51.15656436817196),,,,,,,,,,,,,,,,,,,,,,,,,,,,,,,,,,More Stringent: Other,Secondary,1,1,C,2018,2014-01-01T00:00:00,
UWWTD_United-Kingdom_UrbanWasteWaterTreatmentPlant.fid--515f29cd_17eb926cae9_-1fc6,2018_uww_UKENSW_WXW_TP000059,UKENSW_WXW_TP000059,UK,NETHERAVON STW,1,,ISCON,UKK15,1983,2417,1,1,0,0,0,0,0,0,0,P removal (non-UWWTD),P,P,NR,NR,NR,,,51.23413837,-1.78082032,POINT (-1.780820315 51.23413840810328),,,,,,,,,,,,,,,,,,,,,,,,,,,,,,,,,,Secondary,Appropriate,2,2,NR,2018,2014-01-01T00:00:00,
UWWTD_United-Kingdom_UrbanWasteWaterTreatmentPlant.fid--515f29cd_17eb926cae9_-1fc5,2018_uww_UKENAN_AW_TP000215,UKENAN_AW_TP000215,UK,RAUNDS STW,1,,ISCON,UKF25,11318,20475,1,1,0,1,0,0,0,0,0,,P,P,NR,NR,P,,,52.34149506,-0.56397775,POINT (-0.5639777470000001 52.341495097040756),,,,,,,,,,,,,,,,,,,,,,,,,,,,,,,,,,More Stringent: Other,More Stringent: Phosphorus,1,1,C,2018,2014-01-01T00:00:00,
UWWTD_United-Kingdom_UrbanWasteWaterTreatmentPlant.fid--515f29cd_17eb926cae9_-1fc4,2018_uww_UKENAN_AW_TP000216,UKENAN_AW_TP000216,UK,RAYLEIGH EAST STW,1,,ISCON,UKH37,17287,32329,1,1,0,0,1,0,0,0,0,Nitrifying towers and cloth filtration,P,P,NR,NR,NR,,,51.58268347,0.63621661,POINT (0.636216614 51.582683507785255),,,,,,,,,,,Reduction in domestic pe,,,,,,,,,,,,,,,,,,,,,,,More Stringent: Other,Secondary,1,1,C,2018,2014-01-01T00:00:00,
UWWTD_United-Kingdom_UrbanWasteWaterTreatmentPlant.fid--515f29cd_17eb926cae9_-1fc3,2018_uww_UKENAN_AW_TP000217,UKENAN_AW_TP000217,UK,RAYLEIGH WEST STW,1,,ISCON,UKH37,22234,25845,1,1,0,0,0,0,0,0,0,Lagoon,P,P,NR,NR,NR,,,51.61708117,0.59354118,POINT (0.593541181 51.61708120775303),,,,,,,,,,,,,,,,,,,,,,,,,,,,,,,,,,Secondary,Secondary,1,1,C,2018,2014-01-01T00:00:00,
UWWTD_United-Kingdom_UrbanWasteWaterTreatmentPlant.fid--515f29cd_17eb926cae9_-1fc2,2018_uww_UKENNW_UU_TP000033,UKENNW_UU_TP000033,UK,CLEATOR STW,1,,ISCON,UKD11,12871,13696,1,1,0,1,1,0,0,0,0,UV treatment & Ferric dosing,P,P,NR,NR,P,,,54.50438984,-3.525912,POINT (-3.525912003 54.50438987455647),,,,,,,,,,,,,,,,,,,,,,,,,,,,,,,,,,More Stringent: Other,More Stringent: Phosphorus,1,1,C,2018,2014-01-01T00:00:00,
UWWTD_United-Kingdom_UrbanWasteWaterTreatmentPlant.fid--515f29cd_17eb926cae9_-1fc1,2018_uww_UKENNE_YW_TP000138,UKENNE_YW_TP000138,UK,WILLIAMTHORPE STW,1,,ISCON,UKF12,3903,4041,1,1,0,0,0,0,0,0,0,,P,P,NR,NR,NR,,,53.19375972,-1.35547137,POINT (-1.355471373 53.19375975612314),,,,,,,,,,,,,,,,,,,,,,,,,,,,,,,,,,Secondary,Secondary,1,1,C,2018,2014-01-01T00:00:00,
UWWTD_United-Kingdom_UrbanWasteWaterTreatmentPlant.fid--515f29cd_17eb926cae9_-1fc0,2018_uww_UKENNE_YW_TP000139,UKENNE_YW_TP000139,UK,WITHERNSEA OUTFALL STW,1,,ISCON,UKE12,8267,8514,1,1,0,0,1,0,0,0,0,,P,P,NR,NR,NR,,,53.71511235,0.07127207,POINT (0.071272071 53.7151123855216),,,,,,,,,,,,,,,,,,,,,,,,,,,,,,,,,,More Stringent: Other,Appropriate,2,2,NR,2018,2014-01-01T00:00:00,
UWWTD_United-Kingdom_UrbanWasteWaterTreatmentPlant.fid--515f29cd_17eb926cae9_-1fbf,2018_uww_UKSC_TP00091,UKSC_TP00091,UK,HAMILTON S.T.W.,1,,ISCON,UKM95,63430,63106,1,1,0,1,0,0,0,0,0,,P,P,NR,NR,P,,0,55.79439,-4.05468,POINT (-4.05468 55.794390032849826),,,,,,,,,,,,,0,0,,,,,,,,,,,,,,,,,,,,More Stringent: Other,More Stringent: Phosphorus,1,1,C,2018,2014-01-01T00:00:00,
UWWTD_United-Kingdom_UrbanWasteWaterTreatmentPlant.fid--515f29cd_17eb926cae9_-1fbe,2018_uww_UKENNW_UU_TP000034,UKENNW_UU_TP000034,UK,CLITHEROE STW,1,,ISCON,UKD45,22621,24031,1,1,0,1,0,0,0,0,0,Ferric dosing,P,P,NR,NR,P,,,53.85901297,-2.41778234,POINT (-2.4177823420000006 53.85901300535041),,,,,,,,,,,,,,,,,,,,,,,,,,,,,,,,,,More Stringent: Other,More Stringent: Phosphorus,1,1,C,2018,2014-01-01T00:00:00,
UWWTD_United-Kingdom_UrbanWasteWaterTreatmentPlant.fid--515f29cd_17eb926cae9_-1fbd,2018_uww_UKSC_TP00092,UKSC_TP00092,UK,HAWICK WWTW,1,,ISCON,UKM91,17220,28000,1,1,0,1,0,0,0,0,0,,P,P,NR,NR,P,,0,55.43156,-2.77133,POINT (-2.77133 55.43156003334502),,,,,,,,,,,,,0,0,,,,,,,,,,,,,,,,,,,,More Stringent: Other,More Stringent: Phosphorus,1,1,C,2018,2014-01-01T00:00:00,
UWWTD_United-Kingdom_UrbanWasteWaterTreatmentPlant.fid--515f29cd_17eb926cae9_-1fbc,2018_uww_UKSC_TP00093,UKSC_TP00093,UK,HELENSBURGH   S.T.W.,1,,ISCON,UKM81,14445,19500,1,1,0,0,0,0,0,0,0,,P,P,NR,NR,NR,,0,55.98347,-4.69298,POINT (-4.69298 55.983470032587334),,,,,,,,,,,,,0,0,,,,,,,,,,,,,,,,,,,,Secondary,Secondary,1,1,C,2018,2014-01-01T00:00:00,
UWWTD_United-Kingdom_UrbanWasteWaterTreatmentPlant.fid--515f29cd_17eb926cae9_-1fbb,2018_uww_UKENNW_UU_TP000035,UKENNW_UU_TP000035,UK,COCKERMOUTH STW,1,,ISCON,UKD11,11295,12579,1,1,0,0,0,0,0,0,0,,P,P,NR,NR,NR,,,54.66732003,-3.39323811,POINT (-3.3932381079999994 54.66732006434945),,,,,,,,,,,,,,,,,,,,,,,,,,,,,,,,,,Secondary,Secondary,1,1,C,2018,2014-01-01T00:00:00,
UWWTD_United-Kingdom_UrbanWasteWaterTreatmentPlant.fid--515f29cd_17eb926cae9_-1fba,2018_uww_UKSC_TP00149,UKSC_TP00149,UK,NIGG WWTW- ABERDEEN PFI,1,,ISCON,UKM50,289584,425000,1,1,0,0,0,0,0,0,0,,P,P,NR,NR,NR,,0,57.13219,-2.06146,POINT (-2.06146 57.13219003093258),,,,,,,,,,,,,0,0,,,,,,,,,,,,,,,,,,,,Secondary,Secondary,1,1,C,2018,2014-01-01T00:00:00,
UWWTD_United-Kingdom_UrbanWasteWaterTreatmentPlant.fid--515f29cd_17eb926cae9_-1fb9,2018_uww_UKSC_TP00150,UKSC_TP00150,UK,OBAN S.T.W.,1,,ISCON,UKM63,13249,26600,1,1,0,0,0,0,0,0,0,,P,P,NR,NR,NR,,0,56.42631,-5.46056,POINT (-5.46056 56.42631003196126),,,,,,,,,,,,,0,0,,,,,,,,,,,,,,,,,,,,Secondary,Secondary,1,1,C,2018,2014-01-01T00:00:00,
UWWTD_United-Kingdom_UrbanWasteWaterTreatmentPlant.fid--515f29cd_17eb926cae9_-1fb8,2018_uww_UKENMI_ST_TP000154,UKENMI_ST_TP000154,UK,HEANOR   STW,1,,ISCON,UKF13,34076,37500,1,1,0,1,0,0,0,1,0,,P,P,NR,NR,P,,,53.01163748,-1.32120823,POINT (-1.3212082299999999 53.0116375163262),,,,,,,,,,,,,,,,,,,,,,,,,,,,,,,,,,More Stringent: Other,More Stringent: Phosphorus,1,1,C,2018,2014-01-01T00:00:00,
UWWTD_United-Kingdom_UrbanWasteWaterTreatmentPlant.fid--515f29cd_17eb926cae9_-1fb7,2018_uww_UKENMI_ST_TP000155,UKENMI_ST_TP000155,UK,MILTON STW,1,,ISCON,UKF13,16458,17754,1,1,0,1,0,0,0,1,0,,P,P,NR,NR,P,,,52.84109616,-1.52415864,POINT (-1.5241586440000001 52.84109619651297),,,,,,,,,,,,,,,,,,,,,,,,,,,,,,,,,,More Stringent: Other,More Stringent: Phosphorus,1,1,C,2018,2014-01-01T00:00:00,
UWWTD_United-Kingdom_UrbanWasteWaterTreatmentPlant.fid--515f29cd_17eb926cae9_-1fb6,2018_uww_UKENSW_WXW_TP000060,UKENSW_WXW_TP000060,UK,NORTH PETHERTON STW,1,,ISCON,UKK23,3580,3951,1,1,0,0,0,0,0,0,0,,P,P,NR,NR,NR,,,51.08995357,-3.0017439,POINT (-3.001743897 51.089953608230296),,,,,,,,,,,,,,,,,,,,,,,,,,,,,,,,,,Secondary,Secondary,1,1,C,2018,2014-01-01T00:00:00,
UWWTD_United-Kingdom_UrbanWasteWaterTreatmentPlant.fid--515f29cd_17eb926cae9_-1fb5,2018_uww_UKENSW_WXW_TP000061,UKENSW_WXW_TP000061,UK,FERNDOWN / VERWOOD / WEST MOORS / ST IVES   STW,1,,ISCON,UKK22,43303,50700,1,1,0,0,1,0,0,0,0,,P,P,NR,NR,NR,,,50.80586802,-1.8577591,POINT (-1.8577590980000003 50.805868058472726),,,,,,,,,,,,,,,,,,,,,,,,,,,,,,,,,,More Stringent: Other,Secondary,1,1,C,2018,2014-01-01T00:00:00,
UWWTD_United-Kingdom_UrbanWasteWaterTreatmentPlant.fid--515f29cd_17eb926cae9_-1fb4,2018_uww_UKENSW_WXW_TP000062,UKENSW_WXW_TP000062,UK,PAULTON STW,1,,ISCON,UKK12,10544,12550,1,1,0,1,0,0,0,0,0,P removal from 31/12/2014,P,P,NR,NR,P,,,51.31616464,-2.49487232,POINT (-2.4948723159999995 51.31616467802981),,,,,,,,,,,,,,,,,,,,,,,,,,,,,,,,,,More Stringent: Other,More Stringent: Phosphorus,1,1,C,2018,2014-01-01T00:00:00,
UWWTD_United-Kingdom_UrbanWasteWaterTreatmentPlant.fid--515f29cd_17eb926cae9_-1fb3,2018_uww_UKENMI_ST_TP000099,UKENMI_ST_TP000099,UK,GLOUCESTER NetheridgeSTW,1,,ISCON,UKK13,191433,210000,1,1,0,0,0,0,0,0,0,,P,P,NR,NR,NR,,,51.8433571,-2.27967953,POINT (-2.2796795289999996 51.843357137537446),,,,,,,,,,,,,,,,,,,,,,,,,,,,,,,,,,Secondary,Secondary,1,1,C,2018,2014-01-01T00:00:00,
UWWTD_United-Kingdom_UrbanWasteWaterTreatmentPlant.fid--515f29cd_17eb926cae9_-1fb2,2018_uww_UKENMI_ST_TP000100,UKENMI_ST_TP000100,UK,WALSALL SOUTH   STW,1,,ISCON,UKG38,110180,130000,1,1,0,0,0,0,0,0,0,Chemical Dosing (iron),P,P,NR,NR,NR,,,52.61505765,-1.96910289,POINT (-1.9691028880000008 52.61505768675536),,,,,,,,,,,,,,,,,,,,,,,,,,,,,,,,,,Secondary,More Stringent: Phosphorus,0,0,NC,2018,2014-01-01T00:00:00,
UWWTD_United-Kingdom_UrbanWasteWaterTreatmentPlant.fid--515f29cd_17eb926cae9_-1fb1,2018_uww_UKENSW_WXW_TP000002,UKENSW_WXW_TP000002,UK,ALVESTON STW,1,,ISCON,UKK12,2308,2308,1,1,0,0,0,0,0,0,0,,P,P,NR,NR,NR,,,51.58402072,-2.54451205,POINT (-2.544512048000001 51.58402075778399),,,,,,,,,,,,,,,,,,,,,,,,,,,,,,,,,,Secondary,Secondary,1,1,C,2018,2014-01-01T00:00:00,
UWWTD_United-Kingdom_UrbanWasteWaterTreatmentPlant.fid--515f29cd_17eb926cae9_-1fb0,2018_uww_UKENSW_WXW_TP000003,UKENSW_WXW_TP000003,UK,AMESBURY STW,1,,ISCON,UKK15,9820,9820,1,1,0,0,0,0,0,0,0,P removal (non-UWWTD),P,P,NR,NR,NR,,,51.16823177,-1.78313474,POINT (-1.78313474 51.16823180816167),,,,,,,,,,,,,,,,,,,,,,,,,,,,,,,,,,Secondary,Secondary,1,1,C,2018,2014-01-01T00:00:00,
UWWTD_United-Kingdom_UrbanWasteWaterTreatmentPlant.fid--515f29cd_17eb926cae9_-1faf,2018_uww_UKENAN_AW_TP000218,UKENAN_AW_TP000218,UK,RAYNE STW,1,,ISCON,UKH34,2741,3286,1,1,0,0,0,0,0,1,0,,P,P,NR,NR,NR,,,51.88322769,0.51690936,POINT (0.5169093599999999 51.883227727498806),,,,,,,,,,,,,,,,,,,,,,,,,,,,,,,,,,More Stringent: Other,Secondary,1,1,C,2018,2014-01-01T00:00:00,
UWWTD_United-Kingdom_UrbanWasteWaterTreatmentPlant.fid--515f29cd_17eb926cae9_-1fae,2018_uww_UKENAN_AW_TP000158,UKENAN_AW_TP000158,UK,LEIGHTON LINSLADE STW,1,,ISCON,UKH25,42616,42616,1,1,1,1,0,0,0,0,0,,P,P,NR,P,P,,,51.92735414,-0.67372868,POINT (-0.67372868 51.927354177455804),,,,,,,,,,,,,,,,,,,,,,,,,,,,,,,,,,More Stringent: Other,More Stringent: Nitrogen and Phosphorus,1,1,C,2018,2014-01-01T00:00:00,
UWWTD_United-Kingdom_UrbanWasteWaterTreatmentPlant.fid--515f29cd_17eb926cae9_-1fad,2018_uww_UKENAN_AW_TP000219,UKENAN_AW_TP000219,UK,REEPHAM   STW,1,,ISCON,UKH15,4465,5200,1,1,0,0,0,0,0,0,0,,P,P,NR,NR,NR,,,52.76094745,1.11815317,POINT (1.1181531709999997 52.76094748659959),,,,,,,,,,,,,,,,,,,,,,,,,,,,,,,,,,Secondary,Secondary,1,1,C,2018,2014-01-01T00:00:00,
UWWTD_United-Kingdom_UrbanWasteWaterTreatmentPlant.fid--515f29cd_17eb926cae9_-1fac,2018_uww_UKENAN_AW_TP000220,UKENAN_AW_TP000220,UK,REEPHAM  STW,1,,ISCON,UKF30,7746,7746,1,1,0,0,0,0,0,0,0,,P,P,NR,NR,NR,,,53.26000132,-0.43965475,POINT (-0.4396547470000001 53.260001356048356),,,,,,,,,,,,,,,,,,,,,,,,,,,,,,,,,,Secondary,Secondary,1,1,C,2018,2014-01-01T00:00:00,
UWWTD_United-Kingdom_UrbanWasteWaterTreatmentPlant.fid--515f29cd_17eb926cae9_-1fab,2018_uww_UKENNW_UU_TP000036,UKENNW_UU_TP000036,UK,COLNE STW,1,,ISCON,UKD46,28082,49668,1,1,0,1,0,0,0,0,0,Ferric dosing,P,P,NR,NR,P,,,53.85130743,-2.19865723,POINT (-2.1986572249999994 53.851307465359646),,,,,,,,,,,,,,,,,,,,,,,,,,,,,,,,,,More Stringent: Other,More Stringent: Phosphorus,1,1,C,2018,2014-01-01T00:00:00,
UWWTD_United-Kingdom_UrbanWasteWaterTreatmentPlant.fid--515f29cd_17eb926cae9_-1faa,2018_uww_UKENNW_UU_TP000037,UKENNW_UU_TP000037,UK,CONGLETON STW,1,,ISCON,UKD62,40827,40827,1,1,0,1,0,0,0,0,0,Aluminium Salts/Ferric Dosing,P,P,NR,NR,P,,,53.16825864,-2.22013541,POINT (-2.220135411 53.16825867615178),,,,,,,,,,,Large increase in trade effluent,,,,,,,,,,,,,,,,,,,,,,,More Stringent: Other,More Stringent: Phosphorus,1,1,C,2018,2014-01-01T00:00:00,
UWWTD_United-Kingdom_UrbanWasteWaterTreatmentPlant.fid--515f29cd_17eb926cae9_-1fa9,2018_uww_UKENAN_AW_TP000159,UKENAN_AW_TP000159,UK,LEISTON STW,1,,ISCON,UKH14,6132,6132,1,1,0,0,0,0,0,0,0,,P,P,NR,NR,NR,,,52.21187749,1.58592334,POINT (1.5859233400000003 52.21187752717288),,,,,,,,,,,,,,,,,,,,,,,,,,,,,,,,,,Secondary,Secondary,1,1,C,2018,2014-01-01T00:00:00,
UWWTD_United-Kingdom_UrbanWasteWaterTreatmentPlant.fid--515f29cd_17eb926cae9_-1fa8,2018_uww_UKENNE_YW_TP000140,UKENNE_YW_TP000140,UK,"ELSECAR, LUND HULL AND WOMBWELL   STW""",1,,ISCON,UKE31,59340,59340,1,1,0,0,0,0,0,0,0,,P,P,NR,NR,NR,,,53.52749241,-1.38571741,POINT (-1.385717409 53.527492445741466),,,,,,,,,,,,,,,,,,,,,,,,,,,,,,,,,,Secondary,Secondary,1,1,C,2018,2014-01-01T00:00:00,
UWWTD_United-Kingdom_UrbanWasteWaterTreatmentPlant.fid--515f29cd_17eb926cae9_-1fa7,2018_uww_UKENNE_YW_TP000141,UKENNE_YW_TP000141,UK,SHEFFIELD (WOODHOUSE MILL) STW,1,,ISCON,UKE31,148103,148103,1,1,0,0,0,0,0,0,0,,P,P,NR,NR,NR,,,53.36712429,-1.34970304,POINT (-1.3497030350000006 53.36712432592639),,,,,,,,,,,,,,,,,,,,,,,,,,,,,,,,,,Secondary,Secondary,1,1,C,2018,2014-01-01T00:00:00,
UWWTD_United-Kingdom_UrbanWasteWaterTreatmentPlant.fid--515f29cd_17eb926cae9_-1fa6,2018_uww_UKENNE_YW_TP000142,UKENNE_YW_TP000142,UK,WORSBOROUGH AND DODWORTH STW,1,,ISCON,UKE31,20991,20991,1,1,0,0,0,0,0,0,0,,P,P,NR,NR,NR,,,53.52738602,-1.45661874,POINT (-1.456618743 53.5273860557416),,,,,,,,,,,,,,,,,,,,,,,,,,,,,,,,,,Secondary,Secondary,1,1,C,2018,2014-01-01T00:00:00,
UWWTD_United-Kingdom_UrbanWasteWaterTreatmentPlant.fid--515f29cd_17eb926cae9_-1fa5,2018_uww_UKSC_TP00094,UKSC_TP00094,UK,HUNTLY WWTW,1,,ISCON,UKM50,6225,5500,1,1,0,0,0,0,0,0,0,,P,P,NR,NR,NR,,0,57.45101,-2.77704,POINT (-2.7770399999999995 57.45101003045652),,,,,,,,,,,,,0,0,,,,,,,,,,,,,,,,,,,,Secondary,Secondary,1,1,C,2018,2014-01-01T00:00:00,
UWWTD_United-Kingdom_UrbanWasteWaterTreatmentPlant.fid--515f29cd_17eb926cae9_-1fa4,2018_uww_UKSC_TP00151,UKSC_TP00151,UK,OLDMELDRUM WWTP,1,,ISCON,UKM50,3710,3500,1,1,0,0,0,0,0,0,0,,P,P,NR,NR,NR,,0,57.33377,-2.34066,POINT (-2.3406599999999997 57.33377003063237),,,,,,,,,,,,,0,0,,,,,,,,,,,,,,,,,,,,Secondary,Secondary,1,1,C,2018,2014-01-01T00:00:00,
UWWTD_United-Kingdom_UrbanWasteWaterTreatmentPlant.fid--515f29cd_17eb926cae9_-1fa3,2018_uww_UKSC_TP00152,UKSC_TP00152,UK,ORMISTON WWTW,1,,ISCON,UKM73,3075,5100,1,1,0,0,0,0,0,1,0,,P,P,NR,NR,NR,,0,55.91089,-2.92632,POINT (-2.92632 55.91089003268844),,,,,,,,,,,,,0,0,,,,,,,,,,,,,,,,,,,,More Stringent: Other,Secondary,1,1,C,2018,2014-01-01T00:00:00,
UWWTD_United-Kingdom_UrbanWasteWaterTreatmentPlant.fid--515f29cd_17eb926cae9_-1fa2,2018_uww_UKENMI_ST_TP000158,UKENMI_ST_TP000158,UK,NEWARK STW,1,,ISCON,UKF15,58551,80000,1,1,0,1,0,0,0,1,0,Sandfilter plus grass plot,P,P,NR,NR,P,,,53.09368843,-0.80548111,POINT (-0.8054811050000003 53.093688466235164),,,,,,,,,,,,,,,,,,,,,,,,,,,,,,,,,,More Stringent: Other,More Stringent: Phosphorus,1,1,C,2018,2014-01-01T00:00:00,
UWWTD_United-Kingdom_UrbanWasteWaterTreatmentPlant.fid--515f29cd_17eb926cae9_-1fa1,2018_uww_UKENMI_ST_TP000103,UKENMI_ST_TP000103,UK,GRENDON STW,1,,ISCON,UKG13,5640,6500,1,1,0,0,0,0,0,0,0,,P,P,NR,NR,NR,,,52.59441161,-1.59459379,POINT (-1.594593791 52.594411646777225),,,,,,,,,,,Resident Population reduced by 11.1%,,,,,,,,,,,,,,,,,,,,,,,Secondary,Secondary,1,1,C,2018,2014-01-01T00:00:00,
UWWTD_United-Kingdom_UrbanWasteWaterTreatmentPlant.fid--515f29cd_17eb926cae9_-1fa0,2018_uww_UKENSW_WXW_TP000004,UKENSW_WXW_TP000004,UK,BRISTOL   STW,1,,ISCON,UKK11,899681,1004450,1,1,0,0,0,0,0,0,0,,P,P,NR,NR,NR,,,51.51060443,-2.67440371,POINT (-2.6744037130000002 51.51060446785228),,,,,,,,,,,,,,,,,,,,,,,,,,,,,,,,,,Secondary,Secondary,1,1,C,2018,2014-01-01T00:00:00,
UWWTD_United-Kingdom_UrbanWasteWaterTreatmentPlant.fid--515f29cd_17eb926cae9_-1f9f,2018_uww_UKENSW_WXW_TP000063,UKENSW_WXW_TP000063,UK,PEWSEY STW,1,,ISCON,UKK15,7577,10850,1,1,0,0,0,0,0,1,0,P removal (non-UWWTD),P,P,NR,NR,NR,,,51.333185,-1.77701901,POINT (-1.77701901 51.33318503801447),,,,,,,,,,,,,,,,,,,,,,,,,,,,,,,,,,More Stringent: Other,Secondary,1,1,C,2018,2014-01-01T00:00:00,
UWWTD_United-Kingdom_UrbanWasteWaterTreatmentPlant.fid--515f29cd_17eb926cae9_-1f9e,2018_uww_UKENSW_WXW_TP000064,UKENSW_WXW_TP000064,UK,POOLE STW,1,,ISCON,UKK21,179997,215050,1,1,1,0,1,0,0,1,0,,P,P,NR,P,NR,,,50.74426491,-1.9915968,POINT (-1.991596795 50.7442649485239),,,,,,,,,,,,,,,,,,,,,,,,,,,,,,,,,,More Stringent: Other,More Stringent: Nitrogen,1,1,C,2018,2014-01-01T00:00:00,
UWWTD_United-Kingdom_UrbanWasteWaterTreatmentPlant.fid--515f29cd_17eb926cae9_-1f9d,2018_uww_UKENSW_WXW_TP000065,UKENSW_WXW_TP000065,UK,PORTSIHEAD / PILL   STW,1,,ISCON,UKK12,29052,31185,1,1,0,0,0,0,0,0,0,,P,P,NR,NR,NR,,,51.49171037,-2.73613305,POINT (-2.736133048 51.491710407869746),,,,,,,,,,,,,,,,,,,,,,,,,,,,,,,,,,Secondary,Secondary,1,1,C,2018,2014-01-01T00:00:00,
UWWTD_United-Kingdom_UrbanWasteWaterTreatmentPlant.fid--515f29cd_17eb926cae9_-1f9c,2018_uww_UKENSW_WXW_TP000005,UKENSW_WXW_TP000005,UK,BATH   STW,1,,ISCON,UKK12,115943,115943,1,1,0,1,0,0,0,0,0,,P,P,NR,NR,P,,,51.41217105,-2.44282286,POINT (-2.4428228630000004 51.41217108794275),,,,,,,,,,,,,,,,,,,,,,,,,,,,,,,,,,More Stringent: Other,More Stringent: Phosphorus,1,1,C,2018,2014-01-01T00:00:00,
UWWTD_United-Kingdom_UrbanWasteWaterTreatmentPlant.fid--515f29cd_17eb926cae9_-1f9b,2018_uww_UKSC_TP00095,UKSC_TP00095,UK,INSCH   WWTP,1,,ISCON,UKM50,2839,3500,1,1,0,0,0,0,0,0,0,,P,P,NR,NR,NR,,0,57.34031,-2.59761,POINT (-2.59761 57.340310030622575),,,,,,,,,,,,,0,0,,,,,,,,,,,,,,,,,,,,Secondary,Secondary,1,1,C,2018,2014-01-01T00:00:00,
UWWTD_United-Kingdom_UrbanWasteWaterTreatmentPlant.fid--515f29cd_17eb926cae9_-1f9a,2018_uww_UKENMI_ST_TP000101,UKENMI_ST_TP000101,UK,GOSPEL END STW,1,,ISCON,UKG24,8134,15000,1,1,0,0,0,0,0,1,0,Chemical Dosing (iron),P,P,NR,NR,NR,,,52.54692005,-2.14463343,POINT (-2.144633427 52.54692008682728),,,,,,,,,,,,,,,,,,,,,,,,,,,,,,,,,,More Stringent: Other,Secondary,1,1,C,2018,2014-01-01T00:00:00,
UWWTD_United-Kingdom_UrbanWasteWaterTreatmentPlant.fid--515f29cd_17eb926cae9_-1f99,2018_uww_UKENMI_ST_TP000102,UKENMI_ST_TP000102,UK,GREAT GLEN STW,1,,ISCON,UKF22,3596,4000,1,1,0,0,0,0,0,1,0,Chemical Dosing (iron) plus Tertiary Solids Removal (Sand Filter),P,P,NR,NR,NR,,,52.57044425,-1.02838318,POINT (-1.0283831820000002 52.57044428680251),,,,,,,,,,,,,,,,,,,,,,,,,,,,,,,,,,More Stringent: Other,Secondary,1,1,C,2018,2014-01-01T00:00:00,
UWWTD_United-Kingdom_UrbanWasteWaterTreatmentPlant.fid--515f29cd_17eb926cae9_-1f98,2018_uww_UKENMI_ST_TP000156,UKENMI_ST_TP000156,UK,BIRMINGHAM & BLACK COUNTRY NO. 1 (MINWORTH) STW,1,,ISCON,UKG31,1868865,1900000,1,1,0,1,0,0,0,0,0,,P,P,NR,NR,P,,,52.52882775,-1.75822721,POINT (-1.7582272080000003 52.52882778684627),,,,,,,,,,,,,,,,,,,,,,,,,,,,,,,,,,More Stringent: Other,More Stringent: Phosphorus,1,1,C,2018,2014-01-01T00:00:00,
UWWTD_United-Kingdom_UrbanWasteWaterTreatmentPlant.fid--515f29cd_17eb926cae9_-1f97,2018_uww_UKENMI_ST_TP000157,UKENMI_ST_TP000157,UK,MUCH WENLOCK STW,1,,ISCON,UKG22,2063,2400,1,1,0,0,0,0,0,0,0,Crude Annular Oxidation Ditch  and Chemical Dosing (iron). Reed beds.,P,P,NR,NR,NR,,,52.60273689,-2.54761493,POINT (-2.5476149329999997 52.60273692676841),,,,,,,,,,,,,,,,,,,,,,,,,,,,,,,,,,Secondary,Secondary,1,1,C,2018,2014-01-01T00:00:00,
UWWTD_United-Kingdom_UrbanWasteWaterTreatmentPlant.fid--515f29cd_17eb926cae9_-1f96,2018_uww_UKENSW_WXW_TP000006,UKENSW_WXW_TP000006,UK,BISHOPS LYDEARD STW,1,,ISCON,UKK23,2196,2450,1,1,0,0,0,0,0,0,0,,P,P,NR,NR,NR,,,51.05262137,-3.16786707,POINT (-3.1678670740000006 51.05262140826275),,,,,,,,,,,,,,,,,,,,,,,,,,,,,,,,,,Secondary,Secondary,1,1,C,2018,2014-01-01T00:00:00,
UWWTD_United-Kingdom_UrbanWasteWaterTreatmentPlant.fid--515f29cd_17eb926cae9_-1f95,2018_uww_UKENAN_AW_TP000221,UKENAN_AW_TP000221,UK,ROCHFORD   STW,1,,ISCON,UKH37,33662,42700,1,1,0,0,0,0,0,0,0,Lagoon,P,P,NR,NR,NR,,,51.59532154,0.75511051,POINT (0.755110507 51.59532157777343),,,,,,,,,,,,,,,,,,,,,,,,,,,,,,,,,,Secondary,Secondary,1,1,C,2018,2014-01-01T00:00:00,
UWWTD_United-Kingdom_UrbanWasteWaterTreatmentPlant.fid--515f29cd_17eb926cae9_-1f94,2018_uww_UKENAN_AW_TP000222,UKENAN_AW_TP000222,UK,ROYSTON STW,1,,ISCON,UKH23,15743,16182,1,1,0,1,0,0,0,0,0,,P,P,NR,NR,P,,,52.06323385,-0.02440112,POINT (-0.024401119 52.06323388732192),,,,,,,,,,,,,,,,,,,,,,,,,,,,,,,,,,More Stringent: Other,More Stringent: Phosphorus,1,1,C,2018,2014-01-01T00:00:00,
UWWTD_United-Kingdom_UrbanWasteWaterTreatmentPlant.fid--515f29cd_17eb926cae9_-1f93,2018_uww_UKENAN_AW_TP000160,UKENAN_AW_TP000160,UK,LETCHWORTH STW,1,,ISCON,UKH23,44027,46653,1,1,0,1,0,0,0,0,0,,P,P,NR,NR,P,,,51.99691122,-0.24298612,POINT (-0.242986119 51.99691125738756),,,,,,,,,,,,,,,,,,,,,,,,,,,,,,,,,,More Stringent: Other,More Stringent: Phosphorus,1,1,C,2018,2014-01-01T00:00:00,
UWWTD_United-Kingdom_UrbanWasteWaterTreatmentPlant.fid--515f29cd_17eb926cae9_-1f92,2018_uww_UKENAN_AW_TP000161,UKENAN_AW_TP000161,UK,LINCOLN   STW,1,,ISCON,UKF30,117892,133832,1,1,0,1,0,0,0,1,0,,P,P,NR,NR,P,,,53.22136143,-0.50543749,POINT (-0.505437494 53.22136146609203),,,,,,,,,,,,,,,,,,,,,,,,,,,,,,,,,,More Stringent: Other,More Stringent: Phosphorus,1,1,C,2018,2014-01-01T00:00:00,
UWWTD_United-Kingdom_UrbanWasteWaterTreatmentPlant.fid--515f29cd_17eb926cae9_-1f91,2018_uww_UKENAN_AW_TP000162,UKENAN_AW_TP000162,UK,LINTON STW,1,,ISCON,UKH12,6514,9164,1,1,0,0,0,0,0,1,0,,P,P,NR,NR,NR,,,52.10433254,0.26098092,POINT (0.2609809220000001 52.10433257728098),,,,,,,,,,,Reduction in trade pe,,,,,,,,,,,,,,,,,,,,,,,More Stringent: Other,Secondary,1,1,C,2018,2014-01-01T00:00:00,
UWWTD_United-Kingdom_UrbanWasteWaterTreatmentPlant.fid--515f29cd_17eb926cae9_-1f90,2018_uww_UKENAN_AW_TP000223,UKENAN_AW_TP000223,UK,RYHALL STW,1,,ISCON,UKF22,2257,2825,1,1,0,0,0,0,0,0,0,,P,P,NR,NR,NR,,,52.68483989,-0.4595384,POINT (-0.4595383969999999 52.684839926681164),,,,,,,,,,,,,,,,,,,,,,,,,,,,,,,,,,Secondary,Secondary,1,1,C,2018,2014-01-01T00:00:00,
UWWTD_United-Kingdom_UrbanWasteWaterTreatmentPlant.fid--515f29cd_17eb926cae9_-1f8f,2018_uww_UKENNW_UU_TP000039,UKENNW_UU_TP000039,UK,CROSTON STW,1,,ISCON,UKD47,23057,23057,1,1,0,0,1,0,0,0,0,UV Treatment,P,P,NR,NR,NR,,,53.66183145,-2.78885831,POINT (-2.788858312 53.66183148558443),,,,,,,,,,,,,,,,,,,,,,,,,,,,,,,,,,More Stringent: Other,Secondary,1,1,C,2018,2014-01-01T00:00:00,
UWWTD_United-Kingdom_UrbanWasteWaterTreatmentPlant.fid--515f29cd_17eb926cae9_-1f8e,2018_uww_UKENNW_UU_TP000040,UKENNW_UU_TP000040,UK,CUDDINGTON STW,1,,ISCON,UKD63,5921,5932,1,1,0,0,0,0,0,0,0,,P,P,NR,NR,NR,,,53.24952992,-2.60215319,POINT (-2.602153193 53.2495299560602),,,,,,,,,,,,,,,,,,,,,,,,,,,,,,,,,,Secondary,Secondary,1,1,C,2018,2014-01-01T00:00:00,
UWWTD_United-Kingdom_UrbanWasteWaterTreatmentPlant.fid--515f29cd_17eb926cae9_-1f8d,2018_uww_UKSC_TP00153,UKSC_TP00153,UK,PATNA S.T.W.,1,,ISCON,UKM93,2204,6200,1,1,0,0,0,0,0,0,0,Grass Plots,P,P,NR,NR,NR,,0,55.38045,-4.50432,POINT (-4.504319999999998 55.38045003341384),,,,,,,,,,,,,0,0,,,,,,,,,,,,,,,,,,,,More Stringent: Other,Secondary,1,1,C,2018,2014-01-01T00:00:00,
UWWTD_United-Kingdom_UrbanWasteWaterTreatmentPlant.fid--515f29cd_17eb926cae9_-1f8c,2018_uww_UKENNE_YW_TP000143,UKENNE_YW_TP000143,UK,WRANGBROOK STW,1,,ISCON,UKE45,6340,6572,1,1,0,0,0,0,0,0,0,,P,P,NR,NR,NR,,,53.60843482,-1.25169169,POINT (-1.2516916929999997 53.60843485564708),,,,,,,,,,,,,,,,,,,,,,,,,,,,,,,,,,Secondary,Secondary,1,1,C,2018,2014-01-01T00:00:00,
UWWTD_United-Kingdom_UrbanWasteWaterTreatmentPlant.fid--515f29cd_17eb926cae9_-1f8b,2018_uww_UKENNE_YW_TP000144,UKENNE_YW_TP000144,UK,AIREDALE STW,1,,ISCON,UKE45,4445,4445,1,1,0,0,0,0,0,0,0,,P,P,NR,NR,NR,,,53.73729427,-1.29048995,POINT (-1.2904899450000005 53.737294305495354),,,,,,,,,,,,,,,,,,,,,,,,,,,,,,,,,,Secondary,Secondary,1,1,C,2018,2014-01-01T00:00:00,
UWWTD_United-Kingdom_UrbanWasteWaterTreatmentPlant.fid--515f29cd_17eb926cae9_-1f8a,2018_uww_UKENNE_YW_TP000145,UKENNE_YW_TP000145,UK,MARKET WEIGHTON STW,1,,ISCON,UKE12,7731,7731,1,1,0,0,0,0,0,0,0,,P,P,NR,NR,NR,,,53.85491417,-0.68022618,POINT (-0.6802261839999999 53.854914205355335),,,,,,,,,,,,,,,,,,,,,,,,,,,,,,,,,,Secondary,Secondary,1,1,C,2018,2014-01-01T00:00:00,
UWWTD_United-Kingdom_UrbanWasteWaterTreatmentPlant.fid--515f29cd_17eb926cae9_-1f89,2018_uww_UKSC_TP00096,UKSC_TP00096,UK,INVERCLYDE W.W.T. SERVICE,1,,ISCON,UKM83,87914,121700,1,1,0,0,0,0,0,0,0,,P,P,NR,NR,NR,,0,55.93605,-4.87868,POINT (-4.878679999999999 55.93605003265345),,,,,,,,,,,,,0,0,,,,,,,,,,,,,,,,,,,,Secondary,Secondary,1,1,C,2018,2014-01-01T00:00:00,
UWWTD_United-Kingdom_UrbanWasteWaterTreatmentPlant.fid--515f29cd_17eb926cae9_-1f88,2018_uww_UKSC_TP00217,UKSC_TP00217,UK,ALNESS & INVERGORDON WWTW,1,,ISCON,UKM61,14008,22000,1,1,0,0,0,0,0,0,0,,P,P,NR,NR,NR,,0,57.69106,-4.22457,POINT (-4.22457 57.69106003009372),,,,,,,,,,,,,0,0,,,,,,,,,,,,,,,,,,,,Secondary,Secondary,1,1,C,2018,2014-01-01T00:00:00,
UWWTD_United-Kingdom_UrbanWasteWaterTreatmentPlant.fid--515f29cd_17eb926cae9_-1f87,2018_uww_UKSC_TP00154,UKSC_TP00154,UK,PEEBLES WWTW,1,,ISCON,UKM91,9775,8500,1,1,0,1,0,0,0,0,0,,P,P,NR,NR,P,,0,55.64703,-3.16133,POINT (-3.1613300000000004 55.64703003305231),,,,,,,,,,,,,0,0,,,,,,,,,,,,,,,,,,,,More Stringent: Other,Secondary,1,1,C,2018,2014-01-01T00:00:00,
UWWTD_United-Kingdom_UrbanWasteWaterTreatmentPlant.fid--515f29cd_17eb926cae9_-1f86,2018_uww_UKSC_TP00155,UKSC_TP00155,UK,PENICUIK WWTW,1,,ISCON,UKM73,13191,15367,1,1,0,1,0,0,0,0,0,,P,P,NR,NR,P,,0,55.83571,-3.20423,POINT (-3.2042299999999995 55.83571003279272),,,,,,,,,,,,,0,0,,,,,,,,,,,,,,,,,,,,More Stringent: Other,More Stringent: Phosphorus,1,1,C,2018,2014-01-01T00:00:00,
UWWTD_United-Kingdom_UrbanWasteWaterTreatmentPlant.fid--515f29cd_17eb926cae9_-1f85,2018_uww_UKENMI_ST_TP000159,UKENMI_ST_TP000159,UK,NEWENT STW,1,,ISCON,UKK13,8637,9522,1,1,0,0,0,0,0,1,0,Addition of Chemical Dosing using Aluminium,P,P,NR,NR,NR,,,51.93249983,-2.39077063,POINT (-2.390770627 51.932499867450765),,,,,,,,,,,,,,,,,,,,,,,,,,,,,,,,,,More Stringent: Other,Secondary,1,1,C,2018,2014-01-01T00:00:00,
UWWTD_United-Kingdom_UrbanWasteWaterTreatmentPlant.fid--515f29cd_17eb926cae9_-1f84,2018_uww_UKSC_TP00098,UKSC_TP00098,UK,INVERURIE NEW WWTP,1,,ISCON,UKM50,26050,33500,1,1,0,1,0,0,0,0,0,,P,P,NR,NR,P,,0,57.27328,-2.3675,POINT (-2.3675000000000006 57.273280030722745),,,,,,,,,,,,,0,0,,,,,,,,,,,,,,,,,,,,More Stringent: Other,More Stringent: Phosphorus,1,1,C,2018,2014-01-01T00:00:00,
